NCES-School-ID,School-Name,School-Type,District,School-Level,Address,Phone,Latitude,Longitude
060429013779,21st Century Learning Institute,Public,Beaumont Unified,"Elementary,High","PO Box 187, Beaumont, CA 92223",(951)769-8424,33.9334088,-116.9734685
062827013394,A Place to Grow,Public,Ojai Unified,,"PO Box 878, Ojai, CA 93024",(805)640-4300,34.45,-119.24
061044001166,A. E. Arnold Elementary,Public,Cypress Elementary,Elementary,"9281 Denni St., Cypress, CA 90630",(714)220-6965,33.827059,-118.0551088
061488001834,A. G. Cook Elementary,Public,Garden Grove Unified,Elementary,"9802 Woodbury Ave., Garden Grove, CA 92844",(714)663-6251,33.763215,-117.9589912
063237004995,A. H. Morgan Elementary,Public,Rialto Unified,Elementary,"1571 North Sycamore Ave., Rialto, CA 92376",(909)820-7882,34.128465,-117.3642068
060231000103,A. J. Dorsa Elementary,Public,Alum Rock Union Elementary,Elementary,"1290 Bal Harbor Dr., San Jose, CA 95122",(408)928-7400,37.3403208,-121.8363729
061970010780,A. L. Conner Elementary,Public,Kings Canyon Joint Unified,Elementary,"222 Fourth St., Orange Cove, CA 93646",(559)305-7200,36.6291252,-119.3084235
062295007772,A. M. Thomas Middle,Public,Lost Hills Union Elementary,Middle,"PO Box 158, Lost Hills, CA 93249",(661)797-2626,35.616349,-119.6942941
063384005217,A. M. Winn Waldorf-Inspired,Public,Sacramento City Unified,"Elementary,Middle","3351 Explorer Dr., Sacramento, CA 95827",(916)395-4505,38.5659693,-121.323864
063492005896,Abbott Middle,Public,San Mateo-Foster City,Middle,"600 36th Ave., San Mateo, CA 94403",(650)312-7600,37.530694,-122.3086921
060002808271,Abby Reinke Elementary,Public,Temecula Valley Unified,Elementary,"43799 Sunny Meadows Dr., Temecula, CA 92592",(951)302-6610,33.491884,-117.0873504
060162010232,ABC Secondary (Alternative),Public,ABC Unified,"Middle,High","12222 Cuesta Dr., Cerritos, CA 90703",(562)229-7770,33.878444,-118.0712061
060162014664,ABC Virtual Academy,Public,ABC Unified,"Elementary,Middle","11939 Aclare St., Cerritos, CA 90703",(562)926-5566,33.8750471,-118.0781726
060162813064,ABLE Charter,Public,ABLE Charter District,"Elementary,High","6515 Inglewood Ave., Stockton, CA 95207",(209)478-1600,38.0101134,-121.3174688
062985004650,Abraham Lincoln,Public,Paramount Unified,Elementary,"15324 California Ave., Paramount, CA 90723",(562)602-8036,33.894153,-118.1580192
063762002045,Abraham Lincoln Alternative,Public,Southern Kern Unified,"Elementary,High","2601 Rosamond Blvd., Rosamond, CA 93560",(661)256-5090,34.8644403,-118.1790186
063315005148,Abraham Lincoln Continuation,Public,Riverside Unified,High,"4341 Victoria Ave., Riverside, CA 92507",(951)788-7371,33.9712332,-117.3662265
063384005218,Abraham Lincoln Elementary,Public,Sacramento City Unified,Elementary,"3324 Glenmoor Dr., Sacramento, CA 95827",(916)395-4500,38.57101309999999,-121.3131544
063531005993,Abraham Lincoln Elementary,Public,Santa Ana Unified,Elementary,"425 South Sullivan, Santa Ana, CA 92704",(714)972-6200,33.7405353,-117.902182
062724000755,Abraham Lincoln Elementary,Public,Newport-Mesa Unified,Elementary,"2985 Bear St. Bldg. A, Costa Mesa, CA 92626",(949)515-6955,33.679661,-117.8953316
061524001937,Abraham Lincoln Elementary,Public,Glendale Unified,Elementary,"4310 New York Ave., La Crescenta, CA 91214",(818)249-1863,34.2275447,-118.2521141
061111001230,Abraham Lincoln Elementary,Public,Desert Sands Unified,Elementary,"74-100 Rutledge Way, Palm Desert, CA 92260",(760)862-4340,33.735902,-116.3727184
061029001139,Abraham Lincoln Elementary,Public,Cupertino Union,Elementary,"21710 McClellan Rd., Cupertino, CA 95014",(408)252-4798,37.3138602,-122.0543967
060939000951,Abraham Lincoln Elementary,Public,Colton Joint Unified,Elementary,"444 East Olive St., Colton, CA 92324",(909)580-5026,34.0765967,-117.316621
063581006125,Abraham Lincoln Elementary,Public,Santa Rosa Elementary,Elementary,"850 West Ninth St., Santa Rosa, CA 95401",(707)890-3940,38.4412891,-122.7372177
063459005696,Abraham Lincoln High,Public,San Jose Unified,High,"123 Test St, Testville, CA 98798",(408)535-6300,36.778261,-119.4179324
060363007992,Abraham Lincoln Jr. High,Public,Bakersfield City,Middle,"815 Eureka St., Bakersfield, CA 93305",(661)631-5950,35.3714846,-118.9926743
063627001989,Abraham Lincoln Middle,Public,Selma Unified,Middle,"1239 Nelson Blvd., Selma, CA 93662",(559)898-6600,36.5814303,-119.5998383
062271003139,Abraham Lincoln Senior High,Public,Los Angeles Unified,High,"3501 North Broadway, Los Angeles, CA 90031",(323)441-4600,34.0747623,-118.2040256
063543014546,Abram Agnew Elementary,Public,Santa Clara Unified,Elementary,"3534 Zanker Rd., San Jose, CA 95134",(408)669-4100,37.407044,-121.9310689
063153004883,Abraxas Continuation High,Public,Poway Unified,High,"12450 Glenoak Rd., Poway, CA 92064",(858)748-5900,32.9742397,-117.0610149
061473001790,Acacia Elementary,Public,Fullerton Elementary,Elementary,"1200 North Acacia Ave., Fullerton, CA 92831",(714)447-7700,33.8827236,-117.8972966
060964001004,Acacia Magnet School for Enriched Learning,Public,Conejo Valley Unified,Elementary,"55 Norman Ave., Thousand Oaks, CA 91360",(805)495-5550,34.1969966,-118.8762593
061692002148,Acacia Middle,Public,Hemet Unified,Middle,"1200 East Acacia Ave., Hemet, CA 92543",(951)765-1620,33.7441199,-116.9814699
060229110895,Academia Avance Charter,Public,Academia Avance Charter District,"Middle,High","PO Box 42095, Los Angeles, CA 90042",(323)230-7270,34.0549076,-118.242643
060236112455,Academia Moderna,Public,Academia Moderna District,Elementary,"2410 Broadway, Walnut Park, CA 90255",(323)923-0383,33.9665954,-118.2297237
062271013040,Academies of Education and Empowerment at Carson High,Public,Los Angeles Unified,High,"22328 South Main St., Carson, CA 90745",(310)847-1455,33.8225329,-118.2740156
060282013154,Academies of the Antelope Valley,Public,Antelope Valley Union High,"Middle,High","6300 West Avenue L, Quartz Hill, CA 93536",(661)943-3031,34.6595682,-118.2432485
063441012526,Academy (The)- SF @McAteer,Public,San Francisco Unified,High,"555 Portola Dr., San Francisco, CA 94131",(415)695-5700,37.7453815,-122.4486701
060191107296,Academy for Academic Excellence,Public,Academy for Academic Excellence District,"Elementary,High","17500 Mana Rd., Apple Valley, CA 92307",(760)946-5414,34.5311146,-117.2777727
060837011853,Academy for Change,Public,Chico Unified,"Middle,High","290 East Ave., Chico, CA 95926",(530)891-3092,39.7590183,-121.8588851
062271013006,Academy for Enriched Sciences,Public,Los Angeles Unified,Elementary,"17551 Miranda St., Encino, CA 91316",(818)609-8421,34.1757049,-118.515191
061686012368,Academy of Careers and Exploration,Public,Helendale Elementary,"Middle,High","PO Box 249, Helendale, CA 92342",(760)952-1266,34.7402853,-117.3257169
060985014184,Academy of Innovation,Public,Corona-Norco Unified,"Elementary,High","1951 Third St., Norco, CA 92860",(951)739-6809,33.9171822,-117.5643345
061692009555,Academy of Innovation,Public,Hemet Unified,"Elementary,High","26866 San Jacinto St., Hemet, CA 92543",(951)765-5193,33.7317464,-116.957851
062271013104,Academy of Medical Arts at Carson High,Public,Los Angeles Unified,High,"22328 South Main St., Carson, CA 90745",(310)847-1465,33.8225329,-118.2740156
064098006765,Academy of Technology & Leadership at Saticoy,Public,Ventura Unified,"Elementary,Middle","760 Jazmin Ave., Ventura, CA 93004",(805)672-2701,34.2850311,-119.1597072
064251008517,Academy of the Canyons,Public,William S. Hart Union High,High,"26455 Rockwell Canyon Rd., Santa Clarita, CA 91355",(661)362-3056,34.4044133,-118.5701088
061419010801,Academy of the Redwoods,Public,Fortuna Union High,High,"379 12th Streeet, Fortuna, CA 95540",(707)476-4203,40.59366,-124.15204
064104013396,Academy Performing Preschool,Public,Victor Elementary,,"12219 Second Ave., Victorville, CA 92395",(760)245-1691,34.4734585,-117.2984376
060165010751,Acalanes Center for Independent Study,Public,Acalanes Union High,High,"1963 Tice Valley Blvd., Walnut Creek, CA 94595",(925)280-3945,37.8769804,-122.0760515
060165000032,Acalanes High,Public,Acalanes Union High,High,"1200 Pleasant Hill Rd., Lafayette, CA 94549",(925)280-3970,37.9038837,-122.0969325
060173203245,Accelerated,Public,Accelerated District,"Elementary,Middle","4000 South Main St., Los Angeles, CA 90037",(323)235-6343,34.010732,-118.2737664
061734012565,Accelerated Achievement Academy,Public,Hollister,"Elementary,Middle","1151 Buena Vista Rd. Ste. 200, Hollister, CA 95023",(831)636-4460,36.85653560000001,-121.4173973
060147110830,Accelerated Charter Elementary,Public,Accelerated Charter Elementary District,Elementary,"3914 South Main St., Los Angeles, CA 90037",(323)846-6694,34.0114866,-118.2730599
063993013976,Accelerated Charter High,Public,Tulare Joint Union High,High,"426 North Blackstone St., Tulare, CA 93274",(559)688-2021,36.21383489999999,-119.3306156
069102410567,ACCESS County Community,Public,Orange County Department of Education,"Elementary,High","PO Box 9050, Costa Mesa, CA 92628",(714)245-6404,33.673202,-117.9233294
069102409236,ACCESS Juvenile Hall,Public,Orange County Department of Education,"Elementary,High","PO Box 9050, Costa Mesa, CA 92628",(714)935-7651,33.673202,-117.9233294
060156113023,ACE Charter High,Public,ACE Charter High District,High,"1776 Educational Park Dr., San Jose, CA 95133",(408)251-1362,37.36741,-121.858435
060221712198,ACE Empower Academy,Public,ACE Empower Academy District,"Elementary,Middle","625 South Sunset Ave., San Jose, CA 95116",(408)729-3920,37.3482222,-121.8436046
060185213740,ACE Esperanza Middle,Public,ACE Esperanza Middle District,"Elementary,Middle","1665 Santee Dr., San Jose, CA 95112",(408)729-3420,37.3271031,-121.8457045
060213813852,ACE Inspire Academy,Public,ACE Inspire Academy District,"Elementary,Middle","1100 Shasta Ave., San Jose, CA 95126",(408)295-6008,37.3324608,-121.9140436
060216511561,Achieve Academy,Public,Achieve Academy District,Elementary,"333 Hegenberger Rd. Ste. 705, Oakland, CA 94621",(510)904-6440,37.7356796,-122.1984166
069100214213,Achieve Charter High,Public,Butte County Office of Education,High,"1494 East Ave., CHICO, CA 95926",(530)872-4100,39.7622776,-121.816934
060257014596,Achieve Charter School of Chico,Public,Achieve Charter School of Chico District,"Elementary,Middle","1494 East Ave., Chico, CA 95926",(530)872-4100,39.7622776,-121.816934
060213311571,Achieve Charter School of Paradise Inc.,Public,Achieve Charter School of Paradise Inc. District,"Elementary,Middle","1494 East Ave., Chico, CA 95928",(530)762-2599,39.7622776,-121.816934
062805010730,ACORN Woodland Elementary,Public,Oakland Unified,Elementary,"1025 81st Ave., Oakland, CA 94621",(510)879-5165,37.7535122,-122.1870214
064215012492,Ada Clegg Elementary,Public,Westminster,Elementary,"6311 Larchwood Dr., Huntington Beach, CA 92647",(714)894-7218,33.7477871,-118.0197341
062460003686,Ada Givens Elementary,Public,Merced City Elementary,Elementary,"2900 Green St., Merced, CA 95340",(209)385-6610,37.3056198,-120.453904
062289003501,Ada S. Nelson Elementary,Public,Los Nietos,Elementary,"8140 South Vicki Dr., Whittier, CA 90606",(562)692-0615,33.9697312,-118.0761772
060747000706,Ada W. Harris Elementary,Public,Cardiff Elementary,Elementary,"1508 Windsor Rd., Cardiff-by-the-Sea, CA 92007",(760)632-5894,33.0314281,-117.2739953
061938002329,Adaline E. Kent Middle,Public,Kentfield Elementary,"Elementary,Middle","800 College Ave., Kentfield, CA 94904",(415)458-5970,37.9523351,-122.5487921
060558009312,Adam (William Laird) Elementary,Public,Santa Maria-Bonita,Elementary,"500 West Windsor, Santa Maria, CA 93458",(805)361-6700,34.9235628,-120.4422591
060591011574,Adams (J. Douglas) Middle,Public,Brentwood Union,Middle,"401 American Ave., Brentwood, CA 94513",(925)513-6480,37.9186698,-121.7583601
062724009593,Adams Elementary,Public,Newport-Mesa Unified,Elementary,"2985 Bear St. Bldg. A, Costa Mesa, CA 92626",(714)424-7935,33.679661,-117.8953316
063315005129,Adams Elementary,Public,Riverside Unified,Elementary,"8362 Colorado Ave., Riverside, CA 92504",(951)352-6709,33.944041,-117.4350362
063531005981,Adams Elementary,Public,Santa Ana Unified,Elementary,"2130 South Raitt St., Santa Ana, CA 92704",(714)430-5900,33.7180916,-117.8974602
063432005407,Adams Elementary,Public,San Diego Unified,Elementary,"4672 35th St., San Diego, CA 92116",(619)362-4200,32.7614015,-117.1185702
060141406015,Adams Elementary,Public,Santa Barbara Unified,Elementary,"2701 Las Positas Rd., Santa Barbara, CA 93105",(805)563-2515,34.4326812,-119.7345193
063801006398,Adams Elementary,Public,Stockton Unified,"Elementary,Middle","6402 Inglewood Ave., Stockton, CA 95207",(209)933-7155,38.0094443,-121.3146514
060003204949,Adams Middle,Public,Redondo Beach Unified,Middle,"1401 Inglewood Ave., Redondo Beach, CA 90278",(310)798-8636,33.8675938,-118.3616611
061455001703,Addams Elementary,Public,Fresno Unified,Elementary,"2117 West McKinley Ave., Fresno, CA 93728",(559)457-2510,36.7643809,-119.8369487
062250002695,Addams Elementary,Public,Long Beach Unified,Elementary,"5320 Pine Ave., Long Beach, CA 90805",(562)428-0202,33.8526506,-118.191376
062961004579,Addison Elementary,Public,Palo Alto Unified,Elementary,"650 Addison Ave., Palo Alto, CA 94301",(650)322-5935,37.4459643,-122.1508148
060234308628,Adelante Charter,Public,Adelante Charter District,Elementary,"1102 East Yanonali St., Santa Barbara, CA 93103",(805)966-7392,34.4249152,-119.6791479
060231011793,Adelante Dual Language Academy,Public,Alum Rock Union Elementary,"Elementary,Middle","2999 Ridgemont Dr., San Jose, CA 95127",(408)928-1900,37.3452628,-121.8122652
060231014147,Adelante Dual Language Academy II,Public,Alum Rock Union Elementary,"Elementary,Middle","1970 Cinderella Ln., San Jose, CA 95116",(408)928-7100,37.3446513,-121.8398832
063227002047,Adelante High,Public,Reef-Sunset Unified,High,"PO Box 149, Kettleman City, CA 93239",(559)386-9081,36.0082864,-119.9617998
060006111814,Adelante High,Public,Riverbank Unified,High,"6801 Seventh St., Riverbank, CA 95367",(209)869-2383,37.7372005,-120.9296419
063363005189,Adelante High (Continuation),Public,Roseville Joint Union High,High,"350 Atlantic St., Roseville, CA 95678",(916)782-3155,38.7526442,-121.2800516
063213004973,Adelante Selby Spanish Immersion,Public,Redwood City Elementary,Elementary,"170 Selby Ln., Atherton, CA 94027",(650)482-2415,37.4581312,-122.2202382
060171000038,Adelanto Elementary,Public,Adelanto Elementary,Elementary,"17931 Jonathan St., Adelanto, CA 92301",(760)246-5892,34.5757142,-117.4087751
063697212990,Adelanto High,Public,Victor Valley Union High,High,"15620 Joshua St., Adelanto, CA 92392",(760)246-3909,34.402849,-117.3221656
060171014369,Adelanto Virtual Academy,Public,Adelanto Elementary,"Elementary,Middle","17738 Nevada Ave., Victorville, CA 92394",(760)246-8691,34.5777615,-117.3674766
063720010436,Adele Harrison Middle,Public,Sonoma Valley Unified,Middle,"1150 Broadway, Sonoma, CA 95476",(707)935-6080,38.2796139,-122.4587847
063153001203,Adobe Bluffs Elementary,Public,Poway Unified,Elementary,"8707 Adobe Bluffs Dr., San Diego, CA 92129",(858)538-8403,32.973298,-117.1410896
062927004516,Adolfo Camarillo High,Public,Oxnard Union High,High,"4660 Mission Oaks Blvd., Camarillo, CA 93012",(805)389-6407,34.21818,-119.0084046
063543006055,Adrian Wilcox High,Public,Santa Clara Unified,High,"3250 Monroe St., Santa Clara, CA 95051",(408)423-2400,37.366294,-121.985401
060561013847,Adult Transition Program,Public,Bonita Unified,,"800 West Covina Blvd., San Dimas, CA 91773",(909)971-8230,34.0978732,-117.8252709
063531014192,Advanced Learning Academy,Public,Santa Ana Unified,"Elementary,High","408 E. Santa Clara Ave., Santa Ana, CA 92706",(714)564-2100,33.7662923,-117.8627986
062289003499,Aeolian Elementary,Public,Los Nietos,Elementary,"11600 Aeolian St., Whittier, CA 90606",(562)699-0913,33.9660032,-118.0669308
060172414234,AeroSTEM Academy,Public,AeroSTEM Academy District,"Elementary,High","82 SECOND ST., YUBA CITY, CA 95991",(530)742-2531,39.1244964,-121.6019375
069107812710,Afflerbaugh-Paige Camp,Public,Los Angeles County Office of Education,"Middle,High","9300 Imperial Hwy., Downey, CA 90242",(909)593-4926,33.91647020000001,-118.1291266
062271011315,Aggeler Community Day,Public,Los Angeles Unified,"Middle,High","21050 Plummer St., Chatsworth, CA 91311",(818)341-1232,34.2424073,-118.5924364
060254306363,Agnes J. Johnson Charter,Public,Agnes J. Johnson Charter District,"Elementary,High","PO Box 116, Weott, CA 95571",(707)946-2347,40.3214911,-123.9213179
061803002224,Agnes L. Smith Elementary,Public,Huntington Beach City Elementary,Elementary,"770 17th St., Huntington Beach, CA 92648",(714)536-1469,33.6716006,-118.0048278
063795009643,Agnes M. Baptist Elementary,Public,Stanislaus Union Elementary,Elementary,"1825 Cheyenne Way, Modesto, CA 95356",(209)527-0450,37.693096,-121.0253124
061488001882,Agnes Ware Stanley Elementary,Public,Garden Grove Unified,Elementary,"12201 Elmwood Ave., Garden Grove, CA 92840",(714)663-6484,33.785803,-117.937875
062100002518,Agoura High,Public,Las Virgenes Unified,High,"28545 West Driver Ave., Agoura, CA 91301",(818)889-1262,34.1506052,-118.7522121
062955004559,Agua Caliente Elementary,Public,Palm Springs Unified,Elementary,"30-800 San Luis Rey Plaza, Cathedral City, CA 92234",(760)416-8235,33.8255656,-116.489161
060016007902,Ahwahnee High,Public,Yosemite Unified,High,"50200 Road 427, Oakhurst, CA 93644",(559)683-4667,37.328785,-119.6314522
061455001704,Ahwahnee Middle,Public,Fresno Unified,Middle,"1127 East Escalon Ave., Fresno, CA 93710",(559)451-4300,36.8261396,-119.7697983
060342000256,Aileen Colburn Elementary,Public,Atwater Elementary,Elementary,"2201 Heller St., Atwater, CA 95301",(209)357-6136,37.3530723,-120.6197929
060222711563,AIMS College Prep High,Public,AIMS College Prep High District,High,"746 Grand Ave., Oakland, CA 94607",(510)893-8701,37.8116053,-122.2494873
060147905673,AIMS College Prep Middle,Public,AIMS College Prep Middle District,Middle,"171 12th St., Oakland, CA 94607",(510)893-8701,37.8000841,-122.2656103
060798000765,Akers Elementary,Public,Central Union Elementary,"Elementary,Middle","15783 18th Ave., Lemoore, CA 93245",(559)998-5707,36.2435263,-119.780349
061455010778,Akira Yokomi Elementary,Public,Fresno Unified,Elementary,"2323 East McKenzie, Fresno, CA 93701",(559)457-6140,36.7474777,-119.7827737
060209212248,Alain Leroy Locke College Preparatory Academy,Public,Alain Leroy Locke College Preparatory Academy District,High,"1149 South Hill Street Ste. 600, Los Angeles, CA 90015",(323)420-2170,34.0391822,-118.2612961
060166408673,Alameda Community Learning Center,Public,Alameda Community Learning Center District,"Middle,High","1900 Third St., Alameda, CA 94501",(510)995-4300,37.7791634,-122.2868433
069105106830,Alameda County Community,Public,Alameda County Office of Education,"Elementary,High","313 West Winton Ave., Hayward, CA 94544",(510)670-4590,37.6585103,-122.0983459
069105109264,Alameda County Juvenile Hall/Court,Public,Alameda County Office of Education,"Elementary,High","2500 Fairmont Ave., San Leandro, CA 94578",(510)670-7609,37.7160423,-122.1183586
069105108672,Alameda County Special Education,Public,Alameda County Office of Education,,"313 West Winton Ave., Hayward, CA 94544",(510)723-3857,37.6585103,-122.0983459
061146001260,Alameda Elementary,Public,Downey Unified,Elementary,"8613 East Alameda St., Downey, CA 90242",(562)904-3589,33.9257002,-118.1349166
060177000041,Alameda High,Public,Alameda Unified,High,"2200 Central Ave., Alameda, CA 94501",(510)337-7022,37.771355,-122.2896231
060177010547,Alameda Science and Technology Institute,Public,Alameda Unified,High,"555 Ralph Appezzato Memorial Pkwy., Alameda, CA 94501",(510)748-4021,37.78088150000001,-122.2793039
060177014340,Alameda Unified Special Education,Public,Alameda Unified,,"2060 Challenger Dr., Alameda, CA 94501",(510)337-7000,37.7822733,-122.2699666
061488001822,Alamitos Intermediate,Public,Garden Grove Unified,Middle,"12381 Dale St., Garden Grove, CA 92841",(714)663-6101,33.7833042,-117.9856699
063513005942,Alamo Elementary,Public,San Ramon Valley Unified,Elementary,"100 Wilson Rd., Alamo, CA 94507",(925)855-4800,37.867254,-122.0300283
063441005582,Alamo Elementary,Public,San Francisco Unified,Elementary,"250 23rd Ave., San Francisco, CA 94121",(415)750-8456,37.78279819999999,-122.482038
064059006697,Alamo Elementary,Public,Vacaville Unified,Elementary,"500 South Orchard Ave., Vacaville, CA 95688",(707)453-6200,38.3518626,-122.0020026
060002811039,Alamos Elementary,Public,Temecula Valley Unified,Elementary,"38200 Pacific Park Dr., Murrieta, CA 92563",(951)294-6760,33.5636152,-117.1106649
064119009204,Alamosa Park Elementary,Public,Vista Unified,Elementary,"1234 Arcadia Ave., Vista, CA 92084",(760)940-0700,33.2259398,-117.222359
063432007682,ALBA,Public,San Diego Unified,"Elementary,High","4041 Oregon St., San Diego, CA 92104",(619)344-3900,32.7509189,-117.1349231
060186000059,Albany High,Public,Albany City Unified,High,"603 Key Route Blvd., Albany, CA 94706",(510)558-2500,37.8963091,-122.2921367
060186000060,Albany Middle,Public,Albany City Unified,Middle,"1259 Brighton Ave., Albany, CA 94706",(510)558-3600,37.898041,-122.2943035
061089007275,Albany Park Elementary,Public,Delano Union Elementary,Elementary,"1405 12th Ave., Delano, CA 93215",(661)721-5020,35.7733526,-119.2396151
060002714467,Alberhill Elementary,Public,Lake Elsinore Unified,Elementary,"4170 Brianna Cir., Lake Elsinore, CA 92530",(951)440-3910,33.7088104,-117.3820141
064068006715,Albert A. Michelson Elementary,Public,Vallecito Union,Elementary,"PO Box 329, Avery, CA 95224",(209)728-3441,38.2272338,-120.3147208
060444005836,Albert Baxter Elementary,Public,Bellflower Unified,Elementary,"16703 South Clark Ave., Bellflower, CA 90706",(562)531-1602,33.8825041,-118.1345777
060189611766,Albert Einstein Academies,Public,Albert Einstein Academies District,"Elementary,Middle","3035 Ash St., San Diego, CA 92102",(858)859-1550,32.7195904,-117.1305196
062271002976,Albert Einstein Continuation,Public,Los Angeles Unified,High,"15938 Tupper St., North Hills, CA 91343",(818)892-4367,34.2390263,-118.4798954
063384005219,Albert Einstein Middle,Public,Sacramento City Unified,Middle,"9325 Mirandy Dr., Sacramento, CA 95826",(916)395-5310,38.5489589,-121.3531699
063581009635,Albert F. Biella Elementary,Public,Santa Rosa Elementary,Elementary,"2140 Jennings Ave., Santa Rosa, CA 95401",(707)890-3906,38.44966,-122.7553557
064347007028,Albert Powell Continuation,Public,Yuba City Unified,High,"1875 Clark Ave., Yuba City, CA 95991",(530)822-5210,39.1619462,-121.6261214
063462005818,Albert Schweitzer Elementary,Public,San Juan Unified,Elementary,"4350 Glenridge Dr., Carmichael, CA 95608",(916)867-2094,38.644169,-121.3002939
062513009156,Alberta Martone Elementary,Public,Modesto City Elementary,Elementary,"1413 Poust Rd., Modesto, CA 95358",(209)574-8172,37.6555909,-121.0453995
062448008196,Albion Elementary,Public,Mendocino Unified,Elementary,"30400 Albion Ridge Rd., Albion, CA 95410",(707)937-2968,39.219505,-123.715995
062271002803,Albion Street Elementary,Public,Los Angeles Unified,Elementary,"322 South Avenue 18, Los Angeles, CA 90031",(323)221-3108,34.0691611,-118.2204905
063432005408,Alcott Elementary,Public,San Diego Unified,Elementary,"4680 Hidalgo Ave., San Diego, CA 92117",(619)605-1200,32.8323346,-117.2207833
063315005130,Alcott Elementary,Public,Riverside Unified,Elementary,"2433 Central Ave., Riverside, CA 92506",(951)788-7451,33.9549144,-117.36543
063132004834,Alcott Elementary,Public,Pomona Unified,Elementary,"1600 South Towne Ave., Pomona, CA 91766",(909)397-4552,34.0429198,-117.7404326
062271002804,Aldama Elementary,Public,Los Angeles Unified,Elementary,"632 North Avenue 50, Los Angeles, CA 90042",(323)255-1434,34.1102323,-118.2064709
061389014704,Alder Creek Elementary,Public,Folsom-Cordova Unified,,"4545 Old Ranch Way, Folsom, CA 95630",(916)294-2465,38.63509,-121.106628
063877011005,Alder Creek Middle,Public,Tahoe-Truckee Unified,Middle,"10931 Alder Dr., Truckee, CA 96161",(530)582-2750,39.3451245,-120.1772816
060207211593,Alder Grove Charter School 2,Public,Alder Grove Charter School 2 District,"Elementary,High","714 F St., Eureka, CA 95501",(707)268-0854,40.7995835,-124.1660955
061392001585,Alder Middle,Public,Fontana Unified,Middle,"7555 Alder Ave., Fontana, CA 92336",(909)357-5330,34.1168824,-117.4161868
068450007373,Alderwood Elementary,Public,Irvine Unified,Elementary,"2005 Knollcrest, Irvine, CA 92603",(949)936-5400,33.6481781,-117.7760301
062580011025,Alessandro,Public,Moreno Valley Unified,"Elementary,High","23311 Dracaea Ave., Moreno Valley, CA 92553",(951)571-4510,33.9268919,-117.258449
061692002149,Alessandro High,Public,Hemet Unified,High,"831 East Devonshire Ave., Hemet, CA 92543",(951)765-5182,33.7508441,-116.9636259
062271003011,Alexander Fleming Middle,Public,Los Angeles Unified,Middle,"25425 Walnut St., Lomita, CA 90717",(310)257-4500,33.7911716,-118.312866
063801011783,Alexander Hamilton Elementary,Public,Stockton Unified,"Elementary,Middle","2245 East 11th St., Stockton, CA 95206",(209)933-7395,37.9323783,-121.2496724
062271003064,Alexander Hamilton Senior High,Public,Los Angeles Unified,High,"2955 Robertson Blvd., Los Angeles, CA 90034",(310)280-1400,34.03414,-118.391627
062450003672,Alexander Rose Elementary,Public,Milpitas Unified,Elementary,"250 Roswell Dr., Milpitas, CA 95035",(408)635-2668,37.432753,-121.8764058
060189000064,Alexander Valley Elementary,Public,Alexander Valley Union Elementary,Elementary,"8511 Highway 128, Healdsburg, CA 95448",(707)433-1375,38.6553497,-122.7931195
062271002805,Alexandria Avenue Elementary,Public,Los Angeles Unified,Elementary,"4211 Oakwood Ave., Los Angeles, CA 90004",(323)660-1936,34.0778903,-118.2988891
062271007762,Alfonso B. Perez Special Education Center,Public,Los Angeles Unified,High,"4540 Michigan Ave., Los Angeles, CA 90022",(323)269-0681,34.0382946,-118.1675655
062271003225,Alfred B. Nobel Charter Middle,Public,Los Angeles Unified,Middle,"9950 Tampa Ave., Northridge, CA 91324",(818)773-4700,34.25162420000001,-118.5511329
060015310929,Alhambra High,Public,Alhambra Unified,High,"101 South Second St., Alhambra, CA 91801",(626)943-6910,34.0926692,-118.1283109
062403003612,Alhambra Senior High,Public,Martinez Unified,High,"150 E St., Martinez, CA 94553",(925)335-5810,38.0029391,-122.1328666
062949004554,Alianza Charter,Public,Pajaro Valley Unified,"Elementary,Middle","115 Casserly Rd., Watsonville, CA 95076",(831)728-6333,36.9607149,-121.7314925
062085002501,Alicante Avenue Elementary,Public,Lamont Elementary,Elementary,"7915 Burgundy Ave., Lamont, CA 93241",(661)845-1452,35.2630284,-118.9163603
060939007687,Alice Birney Elementary,Public,Colton Joint Unified,Elementary,"1050 East Olive St., Colton, CA 92324",(909)580-5017,34.0783675,-117.310791
060005201475,Alice Birney Elementary,Public,Eureka City Schools,Elementary,"717 South Ave., Eureka, CA 95503",(707)441-2495,40.776368,-124.1784029
063384007242,Alice Birney Waldorf-Inspired,Public,Sacramento City Unified,"Elementary,Middle","6251 13th St., Sacramento, CA 95831",(916)395-4510,38.5126374,-121.5094683
062100011298,Alice C. Stelle Middle,Public,Las Virgenes Unified,Middle,"22450 Mulholland Hwy., Calabasas, CA 91302",(818)224-4107,34.1421279,-118.6124247
069100709219,Alice M. Worsley,Public,Fresno County Office of Education,"Elementary,High","3333 American Ave., Fresno, CA 93725",(559)600-4990,36.6608889,-119.7267364
061269004134,Alice N. Stroud Elementary,Public,Empire Union Elementary,Elementary,"815 Frazine Rd., Modesto, CA 95357",(209)491-0754,37.6541559,-120.9123508
062871004468,Alice Shaw Elementary,Public,Orcutt Union Elementary,Elementary,"500 Dyer St., Orcutt, CA 93455",(805)938-8850,34.8613179,-120.4431197
060846000836,Alicia Cortez Elementary,Public,Chino Valley Unified,Elementary,"5130 Riverside Dr., Chino, CA 91710",(909)627-9438,34.0193788,-117.6918049
062460009581,Alicia Reyes Elementary,Public,Merced City Elementary,Elementary,"123 South N St., Merced, CA 95340",(209)385-6761,37.2879475,-120.4954654
061176010446,Alila,Public,Earlimart Elementary,Elementary,"PO Box 11970, Earlimart, CA 93219",(661)849-4202,35.8841206,-119.2723328
060195000082,Alisal Community,Public,Alisal Union,Elementary,"1437 Del Monte Ave., Salinas, CA 93905",(831)753-5720,36.6827687,-121.6052531
060002009285,Alisal Elementary,Public,Pleasanton Unified,Elementary,"1454 Santa Rita Rd., Pleasanton, CA 94566",(925)426-4200,37.6721897,-121.8713375
063398005332,Alisal High,Public,Salinas Union High,High,"777 Williams Rd., Salinas, CA 93905",(831)796-7600,36.6832894,-121.6031936
060195014638,Alisal Virtual Academy,Public,Alisal Union,Elementary,"1770 Kittery St., Salinas, CA 93906",(831)753-5700,36.704625,-121.6109163
060756000724,Aliso Elementary,Public,Carpinteria Unified,Elementary,"4545 Carpinteria Ave., Carpinteria, CA 93013",(805)684-4539,34.40150610000001,-119.5268033
060744002328,Aliso Niguel High,Public,Capistrano Unified,High,"28000 Wolverine Way, Aliso Viejo, CA 92656",(949)831-5590,33.5643789,-117.7198007
060744002334,Aliso Viejo Middle,Public,Capistrano Unified,Middle,"111 Park Ave., Aliso Viejo, CA 92656",(949)831-2622,33.5801518,-117.7127788
060198910387,All Tribes Charter,Public,All Tribes Charter District,"Middle,High","PO Box 1432, Valley Center, CA 92082",(760)749-5982,33.2183701,-117.0341967
060152112735,All Tribes Elementary Charter,Public,All Tribes Elementary Charter District,Elementary,"34320 Valley Center Rd. Ste. B, Valley Center, CA 92082",(760)749-4375,33.2787387,-116.9541968
060243000138,Allan Orrenmaa Elementary,Public,Alvord Unified,Elementary,"10365 Keller Ave., Riverside, CA 92505",(951)358-1635,33.9341677,-117.4798631
062460008899,Allan Peterson Elementary,Public,Merced City Elementary,Elementary,"848 East Donna Dr., Merced, CA 95340",(209)385-6700,37.3278068,-120.4609138
060217514235,Allegiance STEAM Academy - Thrive,Public,Allegiance STEAM Academy - Thrive District,"Elementary,Middle","5862 C St., Chino, CA 91710",(909)465-5404,34.0159535,-117.676914
069113814669,Allegiance STEAM Academy - Thrive Fontana,Public,Allegiance STEAM Academy - Thrive Fontana District,"Elementary,Middle","5862 C St., Chino, CA 91710",(909)465-5405,34.0159535,-117.676914
063423005393,Allen (Decima M.) Elementary,Public,San Bruno Park Elementary,Elementary,"875 West Angus Ave., San Bruno, CA 94066",(650)624-3140,37.6264856,-122.4093682
060861000855,Allen (Ella B.) Elementary,Public,Chula Vista Elementary,Elementary,"4300 Allen School Rd., Bonita, CA 91902",(619)479-3662,32.6562614,-117.0331327
063459005697,Allen at Steinbeck,Public,San Jose Unified,Elementary,"820 Steinbeck Dr., San Jose, CA 95123",(408)535-6205,37.2467456,-121.8569971
060561000503,Allen Avenue Elementary,Public,Bonita Unified,Elementary,"115 West Allen Ave., San Dimas, CA 91773",(909)971-8202,34.1178471,-117.8078216
062805004238,Allendale Elementary,Public,Oakland Unified,Elementary,"3670 Penniman Ave., Oakland, CA 94619",(510)879-2101,37.78817129999999,-122.2042516
060198000086,Allensworth Elementary,Public,Allensworth Elementary,"Elementary,Middle","HCI Box 136, Allensworth, CA 93219",(661)849-2401,35.8479482,-119.3843563
062271002807,Allesandro Elementary,Public,Los Angeles Unified,Elementary,"2210 Riverside Dr., Los Angeles, CA 90039",(323)666-7162,34.1013734,-118.2513642
060211912567,Alliance Cindy and Bill Simon Technology Academy High,Public,Alliance Cindy and Bill Simon Tech Acad High DIST,High,"10720 Wilmington Ave., Los Angeles, CA 90059",(323)744-2122,33.9385598,-118.2386867
060245313403,Alliance College-Ready Middle Academy 12,Public,Alliance College-Ready Middle Academy 12 District,Middle,"131 East 50th St., Los Angeles, CA 90011",(323)238-7270,33.9976219,-118.2735414
060186512528,Alliance College-Ready Middle Academy 4,Public,Alliance College-Ready Middle Academy 4 District,Middle,"9719 South Main St., Los Angeles, CA 90003",(323)451-3009,33.9476371,-118.2743145
060158913273,Alliance College-Ready Middle Academy 8,Public,Alliance College-Ready Middle Academy 8 District,Middle,"113 South Rowan Ave., Los Angeles, CA 90063",(323)269-2156,34.0354718,-118.1873464
060166610871,Alliance Collins Family College-Ready High,Public,Alliance Collins Family College-Ready High District,High,"2071 Saturn Ave., Huntington Park, CA 90255",(323)923-1588,33.9775179,-118.2341141
060192611633,Alliance Dr. Olga Mohan High,Public,Alliance Dr. Olga Mohan High District,High,"644 West 17th St., Los Angeles, CA 90015",(213)342-2870,34.0364479,-118.2722591
060217610851,Alliance Gertz-Ressler Richard Merkin 6-12 Complex,Public,Alliance Gertz-Ressler Richard Merkin 6-12 Complex District,"Middle,High","2023 South Union Ave., Los Angeles, CA 90007",(213)745-8141,34.0365645,-118.2830667
060169411634,Alliance Jack H. Skirball Middle,Public,Alliance Jack H. Skirball Middle District,Middle,"603 East 115th St., Los Angeles, CA 90059",(323)905-1377,33.930461,-118.2649512
060193410867,Alliance Judy Ivie Burton Technology Academy High,Public,Alliance Judy Ivie Burton Technology Academy High District,High,"10101 South Broadway, Los Angeles, CA 90003",(323)920-6125,33.9441138,-118.2786642
060154213487,Alliance Kory Hunter Middle,Public,Alliance Kory Hunter Middle District,Middle,"5886 Compton Ave., Los Angeles, CA 90001",(323)484-0450,33.9870451,-118.2474445
060169012342,Alliance Leichtman-Levine FAM Foundation Env Sci High,Public,Alliance Leichtman-Levine FAM Foundation Env Sci High DIST,High,"2930 Fletcher Dr., Los Angeles, CA 90065",(323)739-0560,34.1139088,-118.2466641
060244611642,Alliance Marc & Eva Stern Math and Science,Public,Alliance Marc & Eva Stern Math and Science District,High,"5151 State University Dr., Los Angeles, CA 90032",(323)987-2144,34.0655688,-118.1693016
060170712924,Alliance Margaret M. Bloomfield Technology Academy High,Public,Alliance Margaret M. Bloomfield Tech Acad High DIST,High,"7907 Santa Fe Ave., Huntington Park, CA 90255",(323)537-2060,33.9669802,-118.2305821
060183513857,Alliance Marine - Innovation and Technology 6-12 Complex,Public,Alliance Marine - Innovation and Tech 6-12 Complex DIST,"Middle,High","11933 Allegheny St., Sun Valley, CA 91352",(747)223-2649,34.237235,-118.3932747
060240712259,Alliance Morgan McKinzie High,Public,Alliance Morgan McKinzie High District,High,"110 South Townsend Ave., Los Angeles, CA 90063",(323)526-8198,34.0354095,-118.1879041
060226611641,Alliance Ouchi-O'Donovan 6-12 Complex,Public,Alliance Ouchi-O'Donovan 6-12 Complex District,"Middle,High","5356 South Fifth Ave., Los Angeles, CA 90043",(323)596-2290,34.0200795,-118.322206
060236211632,Alliance Patti And Peter Neuwirth Leadership Academy,Public,Alliance Patti And Peter Neuwirth Leadership Acad DIST,High,"4610 South Main St., Los Angeles, CA 90037",(213)342-2874,34.0012854,-118.2738294
060190012378,Alliance Piera Barbaglia Shaheen Health Services Academy,Public,Alliance Piera Barbaglia Shaheen HLT SRVs Acad DIST,High,"8515 Kansas Ave., Los Angeles, CA 90044",(323)972-9010,33.9603661,-118.2941999
060227912848,Alliance Renee and Meyer Luskin Academy High,Public,Alliance Renee and Meyer Luskin Academy High District,High,"2941 West 70th St., Los Angeles, CA 90043",(323)905-1210,33.9766404,-118.3258702
060219012817,Alliance Susan and Eric Smidt Technology High,Public,Alliance Susan and Eric Smidt Technology High District,High,"211 South Avenue 20, Los Angeles, CA 90031",(323)352-3206,34.07222429999999,-118.2203976
060156812766,Alliance Ted K. Tajima High,Public,Alliance Ted K. Tajima High District,High,"1552 W. Rockwood St., Los Angeles, CA 90026",(213)241-8533,34.063484,-118.261547
060228912572,Alliance Tennenbaum Family Technology High,Public,Alliance Tennenbaum Family Technology High District,High,"2050 North San Fernando Rd., Los Angeles, CA 90065",(323)276-5545,34.102371,-118.2373496
060165413597,Alliance Virgil Roberts Leadership Academy,Public,Alliance Virgil Roberts Leadership Academy District,Middle,"2941 West 70th St., Los Angeles, CA 90043",(323)920-4388,33.9766404,-118.3258702
063132004835,Allison Elementary,Public,Pomona Unified,Elementary,"1011 Russell Pl., Pomona, CA 91767",(909)397-4556,34.0781124,-117.7315642
060240814146,Alma Fuerte Public,Public,Alma Fuerte Public District,"Elementary,Middle","524 Palisade St., Pasadena, CA 91103",(626)204-5265,34.1703654,-118.161222
060780012607,Alma Preschool,Public,Castro Valley Unified,,"4400 Alma Ave., Castro Valley, CA 94546",(510)537-3000,37.7081783,-122.0718819
063459005698,Almaden Elementary,Public,San Jose Unified,Elementary,"1295 Dentwood Dr., San Jose, CA 95118",(408)535-6207,37.2514038,-121.885484
063117007824,Almanor High (Continuation),Public,Plumas Unified,High,"PO Box 797, Chester, CA 96020",(530)258-2126,40.3062736,-121.2319098
061392009544,Almeria Middle,Public,Fontana Unified,Middle,"7723 Almeria Ave., Fontana, CA 92336",(909)357-5350,34.1129733,-117.4592865
060194313176,Almond Acres Charter Academy,Public,Almond Acres Charter Academy District,"Elementary,Middle","1145 Niblick Rd., Paso Robles, CA 93446",(805)221-8550,35.6162342,-120.6628566
061392011362,Almond Elementary,Public,Fontana Unified,Elementary,"8172 Almond Ave., Fontana, CA 92335",(909)357-5130,34.1051135,-117.4941858
062265002782,Almond Elementary,Public,Los Altos Elementary,Elementary,"550 Almond Ave., Los Altos, CA 94022",(650)917-5400,37.384402,-122.100994
062808013786,Almond Grove Elementary,Public,Oakley Union Elementary,Elementary,"5000 Amaryllis St., Oakley, CA 94561",(925)625-6270,37.9751954,-121.7261242
061089007504,Almond Tree Middle,Public,Delano Union Elementary,Middle,"1405 12th Ave., Delano, CA 93215",(661)721-3641,35.7733526,-119.2396151
063348003149,Almondale Elementary,Public,Rosedale Union Elementary,Elementary,"10510 Chippewa St., Bakersfield, CA 93312",(661)588-6060,35.4077684,-119.1197775
060162000001,Aloha Elementary,Public,ABC Unified,Elementary,"11737 East 214th St., Lakewood, CA 90715",(562)229-7825,33.8355353,-118.0834927
062985012423,Alondra Middle,Public,Paramount Unified,Middle,"16200 Downey Ave., Paramount, CA 90723",(562)602-8004,33.886624,-118.1505515
060201000088,Alpaugh -Senior High,Public,Alpaugh Unified,High,"PO Box 9, Alpaugh, CA 93201",(559)949-8413,35.8877316,-119.4873422
060201000087,Alpaugh Elementary,Public,Alpaugh Unified,"Elementary,Middle","PO Box 9, Alpaugh, CA 93201",(559)949-8413,35.8877316,-119.4873422
060163613926,Alpha Cindy Avitia High,Public,Alpha Cindy Avitia High District,High,"PO Box 21366, San Jose, CA 95151",(408)791-1558,37.322286,-121.825862
062334009397,Alpha Elementary,Public,Madera Unified,Elementary,"900 Stadium Rd., Madera, CA 93637",(559)661-4101,36.9417753,-120.066775
061260001423,Alpha Technology Middle,Public,Elverta Joint Elementary,Middle,"8920 Elwyn Ave., Elverta, CA 95626",(916)991-4726,38.7312143,-121.4659267
060222112989,Alpha: Blanca Alvarado,Public,Alpha: Blanca Alvarado District,"Elementary,Middle","PO Box 21366, San Jose, CA 95122",(408)780-0831,37.3304014,-121.8391808
060167112639,Alpha: Cornerstone Academy Preparatory,Public,Alpha: Cornerstone Academy Preparatory District,"Elementary,Middle","1598 Lucretia Ave., San Jose, CA 95122",(408)361-3876,37.3252728,-121.8508932
060214413757,Alpha: Jose Hernandez,Public,Alpha: Jose Hernandez District,"Elementary,Middle","PO Box 21366, San Jose, CA 95151",(408)780-1551,37.322286,-121.825862
069105806965,Alpine County Opportunity,Public,Alpine County Office of Education,"Elementary,High","43 Hawkside Dr., Markleeville, CA 96120",(530)694-2230,38.7663545,-119.8088462
060207006968,Alpine County Secondary Community Day,Public,Alpine County Unified,"Middle,High","43 Hawkside Dr., Markleeville, CA 96120",(530)694-2230,38.7663545,-119.8088462
061944002332,Alpine Elementary,Public,Keppel Union Elementary,"Elementary,Middle","8244 East Pearblossom Hwy., Littlerock, CA 93543",(661)944-3221,34.5204045,-117.9816822
063987013286,Alpine Vista,Public,Tulare City,Elementary,"2975 East Alpine Ave., Tulare, CA 93274",(559)687-3135,36.2022736,-119.3149019
063987014661,Alpine Vista Middle,Public,Tulare City,"Elementary,Middle","2975 East Alpine Ave., Tulare, CA 93274",(559)685-7200,36.2022736,-119.3149019
060133106604,Alps View High (Continuation),Public,Trinity Alps Unified,High,"PO Box 1227, Weaverville, CA 96093",(530)623-6104,40.7415454,-122.9281375
062271012806,Alta California Elementary,Public,Los Angeles Unified,Elementary,"14859 Rayen St., Panorama City, CA 91402",(818)830-4400,34.2326492,-118.4570149
061970002363,Alta Elementary,Public,Kings Canyon Joint Unified,Elementary,"21771 East Parlier Ave., Reedley, CA 93654",(559)305-7210,36.6110205,-119.3984626
062664004011,Alta Heights Elementary,Public,Napa Valley Unified,Elementary,"15 Montecito Blvd., Napa, CA 94559",(707)253-3671,38.3027658,-122.2722779
060216000093,Alta Loma Elementary,Public,Alta Loma Elementary,Elementary,"7085 Amethyst St., Alta Loma, CA 91701",(909)484-5000,34.1613608,-117.5985641
062271002808,Alta Loma Elementary,Public,Los Angeles Unified,Elementary,"1745 Vineyard Ave., Los Angeles, CA 90019",(323)939-2113,34.0429649,-118.338829
060816000790,Alta Loma High,Public,Chaffey Joint Union High,High,"8880 Baseline Rd., Alta Loma, CA 91701",(909)989-5511,34.1222075,-117.6124921
060216000094,Alta Loma Junior High,Public,Alta Loma Elementary,Middle,"9000 Lemon Ave., Alta Loma, CA 91701",(909)484-5100,34.1404342,-117.6099525
063753006339,Alta Loma Middle,Public,South San Francisco Unified,Middle,"116 Romney Ave., South San Francisco, CA 94080",(650)877-8797,37.66154,-122.4500286
061281001439,Alta Mesa Elementary,Public,Enterprise Elementary,Elementary,"2301 Saturn Skyway, Redding, CA 96002",(530)224-4130,40.5548517,-122.3285972
060002909509,Alta Murrieta Elementary,Public,Murrieta Valley Unified,Elementary,"39475 Whitewood Rd., Murrieta, CA 92563",(951)696-1403,33.5671305,-117.1684383
063093008942,Alta Sierra Elementary,Public,Pleasant Ridge Union Elementary,Elementary,"16607 Annie Dr., Grass Valley, CA 95949",(530)272-2319,39.1187384,-121.0418584
060903010202,Alta Sierra Intermediate,Public,Clovis Unified,Middle,"380 West Teague Ave., Clovis, CA 93611",(559)327-3500,36.858223,-119.718533
060141412760,Alta Vista,Public,Santa Barbara Unified,Middle,"215 East Ortega St., Santa Barbara, CA 93101",(805)966-0883,34.42130119999999,-119.6956442
063864010385,Alta Vista Academy,Public,Sweetwater Union High,"Middle,High","730 Medical Center Ct., Chula Vista, CA 91911",(619)216-5160,32.6182553,-117.0248482
060141412435,Alta Vista Alternative High,Public,Santa Barbara Unified,High,"215 East Ortega St., Santa Barbara, CA 93101",(805)966-0883,34.42130119999999,-119.6956442
060348013170,Alta Vista Community Charter,Public,Auburn Union Elementary,Elementary,"173 Oak St., Auburn, CA 95603",(530)885-7067,38.9079179,-121.0635365
060222000098,Alta Vista Elementary,Public,Alta Vista Elementary,"Elementary,Middle","2293 East Crabtree Ave., Porterville, CA 93257",(559)782-5700,36.0579415,-118.963997
060003204950,Alta Vista Elementary,Public,Redondo Beach Unified,Elementary,"1401 Inglewood Ave., Redondo Beach, CA 90278",(310)798-8650,33.8675938,-118.3616611
064032006667,Alta Vista Elementary,Public,Union Elementary,Elementary,"200 Blossom Valley Rd., Los Gatos, CA 95032",(408)356-6146,37.2396716,-121.941455
062631003931,Alta Vista High,Public,Mountain View-Los Altos Union High,High,"1325 Bryant Ave., Mountain View, CA 94040",(650)691-2433,37.360079,-122.063736
064119006812,Alta Vista High (Continuation),Public,Vista Unified,High,"1234 Arcadia Ave., Vista, CA 92084",(760)724-3775,33.2259398,-117.222359
060162514154,Alta Vista Innovation High,Public,Alta Vista Innovation High District,High,"11988 Hesperia Rd., Hesperia, CA 92345",(760)203-4846,34.468844,-117.2931037
060225000099,Alta-Dutch Flat Elementary,Public,Alta-Dutch Flat Union Elementary,"Elementary,Middle","PO Box 958, Alta, CA 95701",(530)389-8283,39.206736,-120.8114612
062994004661,Altadena Elementary,Public,Pasadena Unified,Elementary,"743 East Calaveras St., Altadena, CA 91001",(626)396-5650,34.1855024,-118.1353091
062211008438,Altamont Creek Elementary,Public,Livermore Valley Joint Unified,Elementary,"6500 Garaventa Ranch Rd., Livermore, CA 94551",(925)454-5575,37.7225909,-121.7184372
060141013781,Altamont Elementary,Public,Lammersville Joint Unified,"Elementary,Middle","452 West Saint Francis Ave., Mountain House, CA 95391",(209)836-7240,37.782198,-121.5506694
068450009467,Alternative Education-San Joaquin High,Public,Irvine Unified,"Elementary,High","3387 Barranca Pkwy., Irvine, CA 92606",(949)936-7440,33.689743,-117.8187637
063560007437,Alternative Family Education,Public,Santa Cruz City High,"Elementary,High","840 North Branciforte Ave., Santa Cruz, CA 95062",(831)429-3898,36.9806508,-122.0139504
062691011552,Alternative Learning Academy at Conley-Caraballo High,Public,New Haven Unified,High,"541 Blanche St., Hayward, CA 94544",(510)471-5126,37.6148272,-122.0281614
063417010048,Alternative Learning Center,Public,San Bernardino City Unified,"Elementary,High","1885 E. Lynwood Dr, San Bernardino, CA 92404",(909)888-0763,34.1461019,-117.2470811
060163508674,Alternatives in Action,Public,Alternatives in Action District,High,"6221 East 17th St., Oakland, CA 94621",(510)748-4314,37.7644328,-122.1954656
063720006298,Altimira Middle,Public,Sonoma Valley Unified,Middle,"17805 Arnold Dr., Sonoma, CA 95476",(707)935-6020,38.3119339,-122.4973351
062519003762,Alturas Elementary,Public,Modoc Joint Unified,Elementary,"809 West Eighth St., Alturas, CA 96101",(530)233-7201,41.4900095,-120.5554124
060152210634,Altus Schools Audeo,Public,Altus Schools Audeo District,"Elementary,High","10170 Huennekens St., San Diego, CA 92121",(858)678-2050,32.9028025,-117.1841453
060187603939,Altus Schools Charter School of San Diego,Public,Altus Schools Charter School of San Diego District,"Middle,High","10170 Huennekens St., San Diego, CA 92121",(858)678-2020,32.9028025,-117.1841453
060194014169,Altus Schools East County,Public,Altus Schools East County District,"Middle,High","10170 Huennekens St., San Diego, CA 92121",(858)678-2020,32.9028025,-117.1841453
060150914089,Altus Schools South Bay,Public,Altus Schools South Bay District,"Middle,High","3252 Bonita Rd., Chula Vista, CA 91910",(858)678-2020,32.6487739,-117.0533929
063441005583,Alvarado Elementary,Public,San Francisco Unified,Elementary,"625 Douglas St., San Francisco, CA 94114",(415)695-5695,37.7534167,-122.4379036
062691004065,Alvarado Elementary,Public,New Haven Unified,Elementary,"31100 Fredi St., Union City, CA 94587",(510)471-1039,37.5940302,-122.0757198
062250009902,Alvarado Elementary,Public,Long Beach Unified,Elementary,"1900 East 21st St., Signal Hill, CA 90755",(562)591-7477,33.7945435,-118.1682199
063375005197,Alvarado Intermediate,Public,Rowland Unified,Middle,"1901 South Desire Ave., Rowland Heights, CA 91748",(626)964-2358,33.98390430000001,-117.8960069
060236000125,Alview Elementary,Public,Alview-Dairyland Union Elementary,Elementary,"20513 Road 4, Chowchilla, CA 93610",(559)665-2275,37.0481121,-120.4728091
060558009313,Alvin Elementary,Public,Santa Maria-Bonita,Elementary,"301 East Alvin Ave., Santa Maria, CA 93454",(805)361-6760,34.9606723,-120.4330246
060678000596,Alvin S. Hatch Elementary,Public,Cabrillo Unified,Elementary,"490 Miramontes Ave., Half Moon Bay, CA 94019",(650)712-7160,37.4630132,-122.4349145
060237000127,Alvina Elementary Charter,Public,Alvina Elementary,"Elementary,Middle","295 West Saginaw Ave., Caruthers, CA 93609",(559)864-9411,36.5539521,-119.7964844
060243000128,Alvord High,Public,Alvord Unified,High,"10365 Keller Ave., Riverside, CA 92505",(951)358-1715,33.9341677,-117.4798631
060008910738,Amador County ROP,Public,Amador County ROP,High,"217 Rex Ave., Jackson, CA 95642",(209)257-5353,38.3529515,-120.7782558
069100106970,Amador County Special Education,Public,Amador County Office of Education,"Elementary,High","217 Rex Ave., Jackson, CA 95642",(209)257-5330,38.3529515,-120.7782558
060245008786,Amador High,Public,Amador County Unified,High,"330 Spanish St., Sutter Creek, CA 95685",(209)257-7300,38.3974165,-120.810231
060002009282,Amador Valley High,Public,Pleasanton Unified,High,"1155 Santa Rita Rd., Pleasanton, CA 94566",(925)461-6100,37.6669072,-121.87648
062271011621,Amanecer Primary Center,Public,Los Angeles Unified,Elementary,"832 South Eastman Ave., Los Angeles, CA 90023",(323)264-6494,34.0244577,-118.185881
062088008717,Amargosa Creek Middle,Public,Lancaster Elementary,Middle,"44333 27th St. West, Lancaster, CA 93536",(661)729-6064,34.6878789,-118.1798185
060216714206,Ambassador Phillip V. Sanchez II Public Charter,Public,Ambassador Phillip V. Sanchez II Public Charter District,"Elementary,High","830 Fresno St., Fresno, CA 93706",(559)497-9331,36.72742179999999,-119.8036798
062271012566,Ambassador School-Global Education,Public,Los Angeles Unified,Elementary,"3201 West Eighth St., Los Angeles, CA 90005",(213)480-4520,34.0582858,-118.2974124
062271012559,Ambassador-Global Leadership,Public,Los Angeles Unified,"Middle,High","701 South Catalina St., Los Angeles, CA 90005",(213)480-4540,34.0603407,-118.2970862
062271002809,Ambler Avenue Elementary,Public,Los Angeles Unified,Elementary,"319 East Sherman Dr., Carson, CA 90746",(310)532-4090,33.8777875,-118.2710714
062271002972,Amelia Earhart Continuation,Public,Los Angeles Unified,High,"5355 Colfax Ave., North Hollywood, CA 91601",(818)769-4877,34.1681079,-118.3880348
060177000043,Amelia Earhart Elementary,Public,Alameda Unified,Elementary,"400 Packet Landing Rd., Alameda, CA 94502",(510)748-4003,37.7448896,-122.237426
061111008766,Amelia Earhart Elementary School of International Studies,Public,Desert Sands Unified,Elementary,"45-250 Dune Palms Rd., Indio, CA 92201",(760)200-3720,33.7200409,-116.2763464
063315005006,Amelia Earhart Middle,Public,Riverside Unified,Middle,"20202 Aptos St., Riverside, CA 92508",(951)697-5700,33.8904954,-117.3108384
060146814198,America's Finest Charter,Public,America's Finest Charter District,"Elementary,High","730 45th St., San Diego, CA 92102",(619)694-4809,32.7127525,-117.0984618
062664012535,American Canyon High,Public,Napa Valley Unified,High,"3000 Newell Dr., American Canyon, CA 94503",(707)265-2710,38.1750636,-122.2429734
062664007575,American Canyon Middle,Public,Napa Valley Unified,Middle,"300 Benton Way, American Canyon, CA 94589",(707)259-8592,38.1705951,-122.2664521
063348011603,American Elementary,Public,Rosedale Union Elementary,Elementary,"800 Verdugo, Bakersfield, CA 93312",(661)587-2277,35.3645365,-119.1174823
061440001654,American High,Public,Fremont Unified,High,"36300 Fremont Blvd., Fremont, CA 94536",(510)796-1776,37.5653614,-122.0164491
060188012013,American Indian Public Charter School II,Public,American Indian Public Charter School II District,"Elementary,Middle","171 12th St., Oakland, CA 94607",(510)893-8701,37.8000841,-122.2656103
060003601095,American Lakes,Public,Natomas Unified,"Elementary,Middle","2800 Stonecreek Dr., Sacramento, CA 95833",(916)567-5500,38.6169766,-121.4936227
063384005221,American Legion High (Continuation),Public,Sacramento City Unified,High,"3801 Broadway, Sacramento, CA 95817",(916)395-5000,38.5482911,-121.4648595
060524012774,American River Charter,Public,Black Oak Mine Unified,"Elementary,High","6620 Wentworth Springs Rd., Georgetown, CA 95634",(530)333-8340,38.9122615,-120.8279103
060254114490,American River Collegiate Academy,Public,American River Collegiate Academy District,Elementary,"2204 Plaza Dr. Ste. 200, Rocklin, CA 95765",(916)672-3550,38.7949744,-121.2702791
060141500147,American Union Elementary,Public,Washington Unified,"Elementary,Middle","2801 West Adams Ave., Fresno, CA 93706",(559)495-5650,36.6337791,-119.8426087
062949004534,Amesti Elementary,Public,Pajaro Valley Unified,Elementary,"25 Amesti Rd., Watsonville, CA 95076",(831)728-6250,36.9454005,-121.7688035
062271002811,Amestoy Elementary,Public,Los Angeles Unified,Elementary,"1048 West 149th St., Gardena, CA 90247",(310)327-5592,33.8950476,-118.2930752
061111007694,Amistad High (Continuation),Public,Desert Sands Unified,High,"83-501 Dillon Ave., Indio, CA 92201",(760)775-3570,33.7255568,-116.2097207
060639009327,Amy B. Seibert Elementary,Public,Panama-Buena Vista Union,Elementary,"2800 Agate St., Bakersfield, CA 93304",(661)832-4141,35.3294087,-119.0345531
062628007791,Amy Imai Elementary,Public,Mountain View Whisman,Elementary,"253 Martens Ave., Mountain View, CA 94040",(650)526-3490,37.3743132,-122.0751447
062927014668,Anacapa Adult Transition Program,Public,Oxnard Union High,High,"1701 Gary Dr., Oxnard, CA 93033",(805)385-5247,34.168483,-119.1607007
064098006743,Anacapa Middle,Public,Ventura Unified,Middle,"100 South Mills Rd., Ventura, CA 93003",(805)289-7900,34.2717195,-119.2470381
060261014460,Anaheim Elementary Online Academy,Public,Anaheim Elementary,Elementary,"2000 W Ball Rd, Anaheim, CA 92804",(714)517-8944,33.8167154,-117.9522789
060263000169,Anaheim High,Public,Anaheim Union High,High,"811 West Lincoln Ave., Anaheim, CA 92805",(714)999-3717,33.8337033,-117.9241494
062865004418,Anaheim Hills Elementary,Public,Orange Unified,Elementary,"6450 East Serrano, Anaheim, CA 92807",(714)997-6169,33.8211159,-117.8250247
060192512271,Anahuacalmecac International Univ Prep of N. America,Public,Anahuacalmecac International Univ Prep of N. America DIST,"Elementary,High","4736 Huntington Dr. South, Los Angeles, CA 90032",(323)352-3148,34.0850687,-118.1814934
060267000193,Analy High,Public,West Sonoma County Union High,High,"6950 Analy Ave., Sebastopol, CA 95472",(707)824-2300,38.4077771,-122.8271437
062271002812,Anatola Avenue Elementary,Public,Los Angeles Unified,Elementary,"7364 Anatola Ave., Lake Balboa, CA 91406",(818)343-8733,34.2039325,-118.5144948
064212010911,Anaverde Hills,Public,Westside Union Elementary,"Elementary,Middle","2902 Greenbrier St., Palmdale, CA 93551",(661)575-9923,34.5649266,-118.179923
062271002814,Andasol Avenue Elementary,Public,Los Angeles Unified,Elementary,"10126 Encino Ave., Northridge, CA 91325",(818)349-8631,34.2546299,-118.5144456
063417007342,Anderson,Public,San Bernardino City Unified,"Elementary,High","24302 East Fourth St., San Bernardino, CA 92410",(909)388-6311,34.1073756,-117.2736415
062781009413,Anderson (Alex) Elementary,Public,Oak Grove Elementary,Elementary,"5800 Calpine Dr., San Jose, CA 95123",(408)225-6556,37.246677,-121.8112328
061128001254,Anderson (Linford L.) Elementary,Public,Dixon Unified,Elementary,"415 East C St., Dixon, CA 95620",(707)693-6360,38.4479798,-121.8186662
060270007439,Anderson Community Day,Public,Anderson Union High,High,"5250 West Anderson Dr., Anderson, CA 96007",(530)365-6054,40.43771700000001,-122.304286
060962000969,Anderson Elementary,Public,Compton Unified,"Elementary,Middle","2210 East 130th St., Compton, CA 90222",(310)898-6110,33.9140782,-118.232515
064215006901,Anderson Elementary,Public,Westminster,Elementary,"8902 Hewitt Pl., Garden Grove, CA 92844",(714)894-7201,33.761056,-117.9745541
060768000734,Anderson Heights Elementary,Public,Cascade Union Elementary,Elementary,"1530 Spruce St., Anderson, CA 96007",(530)378-7050,40.4360973,-122.2938748
060270000196,Anderson High,Public,Anderson Union High,High,"1471 Ferry St., Anderson, CA 96007",(530)365-2741,40.4444156,-122.3053573
060768000733,Anderson Middle,Public,Cascade Union Elementary,Middle,"1646 West Ferry St., Anderson, CA 96007",(530)378-7060,40.4461328,-122.3051182
060270010671,Anderson New Technology High,Public,Anderson Union High,High,"2098 North St., Anderson, CA 96007",(530)365-3100,40.4522108,-122.3004831
060273000198,Anderson Valley Elementary,Public,Anderson Valley Unified,Elementary,"PO Box 830, Boonville, CA 95415",(707)895-3010,39.0089749,-123.3671551
060273000199,Anderson Valley Junior-Senior High,Public,Anderson Valley Unified,"Middle,High","PO Box 130, Boonville, CA 95415",(707)895-3496,39.0089749,-123.3671551
061524007518,Anderson W. Clark Magnet High,Public,Glendale Unified,High,"4747 New York Ave., La Crescenta, CA 91214",(818)248-8324,34.2372222,-118.2539051
062271012677,Andres and Maria Cardenas Elementary,Public,Los Angeles Unified,Elementary,"6900 Calhoun Ave., Van Nuys, CA 91405",(818)908-6700,34.1955427,-118.4418935
063462005760,Andrew Carnegie Middle,Public,San Juan Unified,Middle,"5820 Illinois Ave., Orangevale, CA 95662",(916)971-7853,38.6715699,-121.2338084
062271002896,Andrew Carnegie Middle,Public,Los Angeles Unified,Middle,"21820 Bonita St., Carson, CA 90745",(310)952-5700,33.8301015,-118.258536
063531005990,Andrew Jackson Elementary,Public,Santa Ana Unified,Elementary,"1143 South Nakoma Dr., Santa Ana, CA 92704",(714)431-3700,33.7329865,-117.9086289
061111001227,Andrew Jackson Elementary,Public,Desert Sands Unified,Elementary,"82-850 Kenner Ave., Indio, CA 92201",(760)775-3830,33.7338146,-116.219227
063627006186,Andrew Jackson Elementary,Public,Selma Unified,Elementary,"2220 Huntsman Ave., Selma, CA 93662",(559)898-6690,36.5839555,-119.614416
062211002618,Andrew N. Christensen Middle,Public,Livermore Valley Joint Unified,Middle,"5757 Haggin Oaks Ave., Livermore, CA 94551",(925)606-4702,37.7254904,-121.729583
061182001301,Andrew P. Hill High,Public,East Side Union High,High,"3200 Senter Rd., San Jose, CA 95111",(408)347-4100,37.2923522,-121.8310265
064347011377,Andros Karperos,Public,Yuba City Unified,"Elementary,Middle","1700 Camino de Flores, Yuba City, CA 95993",(530)822-4440,39.1233757,-121.6459664
062271002815,Angel's Gate (Continuation),Public,Los Angeles Unified,High,"3607 South Gaffey St., San Pedro, CA 90731",(310)221-4600,33.7114311,-118.2929628
062271002816,Angeles Mesa Elementary,Public,Los Angeles Unified,Elementary,"2611 West 52nd St., Los Angeles, CA 90043",(323)294-5103,33.9957244,-118.3219887
061336010429,Angelo Rodriguez High,Public,Fairfield-Suisun Unified,High,"5000 Red Top Rd., Fairfield, CA 94534",(707)863-7950,38.199404,-122.144258
063432005410,Angier Elementary,Public,San Diego Unified,Elementary,"8450 Hurlbut St., San Diego, CA 92123",(858)496-8295,32.8054927,-117.1458227
060230714151,Animo City of Champions Charter High,Public,Animo City of Champions Charter High District,High,"1149 South Hill St. Ste. 600, Los Angeles, CA 90015",(323)565-1600,34.0391822,-118.2612961
060218714269,Animo Compton Charter,Public,Animo Compton Charter District,"Middle,High","1149 South Hill St., Los Angeles, CA 90015",(323)565-1600,34.0391822,-118.2612961
060165812905,Animo Ellen Ochoa Charter Middle,Public,Animo Ellen Ochoa Charter Middle District,Middle,"1149 South Hill St. Ste. 600, Los Angeles, CA 90015",(323)565-3245,34.0391822,-118.2612961
060209614036,Animo Florence-Firestone Charter Middle,Public,Animo Florence-Firestone Charter Middle District,Middle,"1149 South Hill St. Ste. 600, Los Angeles, CA 90015",(323)565-3280,34.0391822,-118.2612961
060247110538,Animo Inglewood Charter High,Public,Animo Inglewood Charter High District,High,"1149 South Hill St. Ste. 600, Los Angeles, CA 90015",(323)565-2100,34.0391822,-118.2612961
060165711636,Animo Jackie Robinson High,Public,Animo Jackie Robinson High District,High,"1149 South Hill St., Los Angeles, CA 90015",(323)846-5800,34.0391822,-118.2612961
060196012908,Animo James B. Taylor Charter Middle,Public,Animo James B. Taylor Charter Middle District,Middle,"1149 S. Hill Street Ste. 600, Los Angeles, CA 90015",(323)568-8613,34.0391822,-118.2612961
060234412690,Animo Jefferson Charter Middle,Public,Animo Jefferson Charter Middle District,Middle,"1149 S. Hill Street Ste. 600, Los Angeles, CA 90015",(323)232-1857,34.0391822,-118.2612961
060205208504,Animo Leadership High,Public,Animo Leadership High District,High,"1149 South Hill St. Ste. 600, Los Angeles, CA 90015",(310)216-3277,34.0391822,-118.2612961
060162412935,Animo Legacy Charter Middle,Public,Animo Legacy Charter Middle District,Middle,"1149 S. Hill Street Ste. 600, Los Angeles, CA 90015",(323)600-6000,34.0391822,-118.2612961
060164913787,Animo Mae Jemison Charter Middle,Public,Animo Mae Jemison Charter Middle District,Middle,"1149 South Hill St. Ste. 600, Los Angeles, CA 90015",(323)565-4450,34.0391822,-118.2612961
060225710849,Animo Pat Brown,Public,Animo Pat Brown District,High,"1149 S. Hill Street Ste. 600, Los Angeles, CA 90015",(323)585-3312,34.0391822,-118.2612961
060189911635,Animo Ralph Bunche Charter High,Public,Animo Ralph Bunche Charter High District,High,"1149 S. Hill Street Ste. 600, Los Angeles, CA 90015",(323)232-9436,34.0391822,-118.2612961
060243510836,Animo South Los Angeles Charter,Public,Animo South Los Angeles Charter District,High,"1149 S. Hill St. Ste. 600, Los Angeles, CA 90015",(323)779-0544,34.0391822,-118.2612961
060246110848,Animo Venice Charter High,Public,Animo Venice Charter High District,High,"1149 South Hill St. Ste. 600, Los Angeles, CA 90015",(310)392-8751,34.0391822,-118.2612961
060221911640,Animo Watts College Preparatory Academy,Public,Animo Watts College Preparatory Academy District,High,"1149 S. Hill Street Ste. 600, Los Angeles, CA 90015",(323)756-3930,34.0391822,-118.2612961
061455003019,Ann B. Leavenworth,Public,Fresno Unified,Elementary,"4420 East Thomas Ave., Fresno, CA 93702",(559)253-6490,36.7520582,-119.7509425
062583011453,Ann Sobrato High,Public,Morgan Hill Unified,High,"401 Burnett Ave., Morgan Hill, CA 95037",(408)201-6200,37.1607685,-121.6703731
062949008368,Ann Soldo Elementary,Public,Pajaro Valley Unified,Elementary,"1140 Menasco Dr., Watsonville, CA 95076",(831)786-1310,36.9256008,-121.7426995
062271002817,Ann Street Elementary,Public,Los Angeles Unified,Elementary,"126 East Bloom St., Los Angeles, CA 90012",(323)221-3194,34.0643248,-118.2302763
060846000834,Anna A. Borba Fundamental Elementary,Public,Chino Valley Unified,Elementary,"5130 Riverside Dr., Chino, CA 91710",(909)627-9438,34.0193788,-117.6918049
060429012345,Anna Hause Elementary,Public,Beaumont Unified,Elementary,"PO Box 187, Beaumont, CA 92223",(951)769-1674,33.9334088,-116.9734685
061233001403,Anna Kirchgater Elementary,Public,Elk Grove Unified,Elementary,"8141 Stevenson Ave., Sacramento, CA 95828",(916)689-9150,38.4661536,-121.4076584
061336001524,Anna Kyle Elementary,Public,Fairfield-Suisun Unified,Elementary,"1600 Kidder Ave., Fairfield, CA 94533",(707)421-4105,38.2589798,-122.0282002
062769004167,Anna M. Glazier Elementary,Public,Norwalk-La Mirada Unified,Elementary,"10932 East Excelsior Dr., Norwalk, CA 90650",(562)210-2890,33.8939803,-118.1017202
062409003620,Anna McKenney Intermediate,Public,Marysville Joint Unified,Middle,"1904 Huston, Marysville, CA 95901",(530)741-6187,39.1586659,-121.5718338
061263001425,Anna Yates Elementary,Public,Emery Unified,"Elementary,Middle","4727 San Pablo Ave., Emeryville, CA 94608",(510)601-4916,37.8363111,-122.2818262
062271002818,Annalee Avenue Elementary,Public,Los Angeles Unified,Elementary,"19410 South Annalee Ave., Carson, CA 90746",(310)537-4740,33.8542934,-118.2526491
062271002819,Annandale Elementary,Public,Los Angeles Unified,Elementary,"6125 Poppy Peak Dr., Los Angeles, CA 90042",(323)254-9168,34.1284605,-118.186644
063459005699,Anne Darling Elementary,Public,San Jose Unified,Elementary,"333 North 33rd St., San Jose, CA 95133",(408)535-6209,37.3564472,-121.8651262
060912010207,Annie E. Cheney Kindergarten,Public,Coalinga-Huron Unified,Elementary,"149 Adams St., Coalinga, CA 93210",(559)935-7515,36.1423294,-120.3648201
064074006718,Annie Pennycook Elementary,Public,Vallejo City Unified,Elementary,"3620 Fernwood Dr., Vallejo, CA 94591",(707)556-8590,38.0991627,-122.2113438
064116006807,Annie R. Mitchell,Public,Visalia Unified,Elementary,"2121 East Laura Ave., Visalia, CA 93292",(559)622-3195,36.3110281,-119.2679651
062223011413,Ansel Adams,Public,Lodi Unified,Elementary,"9275 Glacier Point Dr., Stockton, CA 95212",(209)953-9601,38.033067,-121.275423
061785002204,Ansgar Larsen Elementary,Public,Hueneme Elementary,Elementary,"550 East Thomas Ave., Oxnard, CA 93033",(805)986-8740,34.1694939,-119.1715213
060001300805,Antelope Creek Elementary,Public,Rocklin Unified,Elementary,"6185 Springview Dr., Rocklin, CA 95677",(916)632-1095,38.7777701,-121.2580986
061149003494,Antelope Crossing Middle,Public,Dry Creek Joint Elementary,Middle,"9200 Palmerson Dr., Antelope, CA 95843",(916)745-2100,38.718467,-121.3409391
061187001323,Antelope Elementary,Public,Eastern Sierra Unified,"Elementary,Middle","111527 Highway 395, Coleville, CA 96107",(530)495-2231,38.5671567,-119.5085439
060276000201,Antelope Elementary,Public,Antelope Elementary,Elementary,"22630 Antelope Blvd., Red Bluff, CA 96080",(530)527-1272,40.1863393,-122.1940622
061944002333,Antelope Elementary,Public,Keppel Union Elementary,"Elementary,Middle","37237 North 100th St. East, Littlerock, CA 93543",(661)944-2148,34.558619,-117.9520615
063363012310,Antelope High,Public,Roseville Joint Union High,High,"7801 Titan Dr., Antelope, CA 95843",(916)726-1400,38.7128962,-121.3583939
060002911044,Antelope Hills Elementary,Public,Murrieta Valley Unified,Elementary,"36105 Murrieta Oaks Ave., Murrieta, CA 92562",(951)445-4110,33.5963825,-117.1812248
061149010268,Antelope Meadows Elementary,Public,Dry Creek Joint Elementary,Elementary,"8343 Palmerson Dr., Antelope, CA 95843",(916)770-8816,38.722272,-121.3594939
060282000203,Antelope Valley High,Public,Antelope Valley Union High,High,"44900 North Division St., Lancaster, CA 93535",(661)948-8552,34.6617532,-118.1235516
060185412022,Antelope Valley Learning Academy,Public,Antelope Valley Learning Academy District,"Elementary,High","177 Holston Dr., Lancaster, CA 93535",(661)272-0044,34.6655273,-118.1292896
060011210925,Antelope Valley ROP,Public,Antelope Valley ROP,High,"1156 East Ave. S, Palmdale, CA 93550",(661)575-1026,34.5573964,-118.1066442
061884011411,Anthony C. Traina Elementary,Public,Jefferson Elementary,"Elementary,Middle","4256 Windsong Dr., Tracy, CA 95377",(209)839-2379,37.7005382,-121.4421265
061938002327,Anthony G. Bacich Elementary,Public,Kentfield Elementary,Elementary,"699 Sir Francis Drake Blvd., Kentfield, CA 94904",(415)925-2220,37.9525351,-122.5390419
062450003675,Anthony Spangler Elementary,Public,Milpitas Unified,Elementary,"140 North Abbott, Milpitas, CA 95035",(408)635-2870,37.4306805,-121.9139851
061674009847,Anthony W. Ochoa Middle,Public,Hayward Unified,Middle,"2121 Depot Rd., Hayward, CA 94545",(510)723-3130,37.6402961,-122.1097765
060202707493,Antioch Charter Academy,Public,Antioch Charter Academy District,"Elementary,Middle","3325 Hacienda Way, Antioch, CA 94509",(925)755-7311,37.9885159,-121.8267211
060182211984,Antioch Charter Academy II,Public,Antioch Charter Academy II District,"Elementary,Middle","1201 West Tenth St., Antioch, CA 94509",(925)755-1252,38.0080168,-121.821542
060285000207,Antioch High,Public,Antioch Unified,High,"700 West 18th St, Antioch, CA 94509",(925)779-7550,38.0062704,-121.8162463
060285000208,Antioch Middle,Public,Antioch Unified,Middle,"1500 D St., Antioch, CA 94509",(925)779-7400,38.0055732,-121.8113086
060681000603,Anza Elementary,Public,Cajon Valley Union,Elementary,"1005 South Anza St., El Cajon, CA 92020",(619)588-3116,32.7812911,-116.9472972
063942006550,Anza Elementary,Public,Torrance Unified,Elementary,"21400 Ellinwood Dr., Torrance, CA 90503",(310)533-4559,33.8337541,-118.3655023
069113603761,Anzar High,Public,Aromas - San Juan Unified,High,"2000 San Juan Hwy., San Juan Bautista, CA 95045",(831)623-7660,36.8809502,-121.555899
061182006643,Apollo High,Public,East Side Union High,High,"1835 Cunningham Ave., San Jose, CA 95122",(408)928-5400,37.3308726,-121.8293589
063684006245,Apollo High,Public,Simi Valley Unified,High,"3150 School St., Simi Valley, CA 93065",(805)520-6150,34.2701441,-118.7360266
062271002820,Apperson Street Elementary,Public,Los Angeles Unified,Elementary,"10233 Woodward Ave., Sunland, CA 91040",(818)353-5544,34.2549898,-118.3078609
064023006652,Apple Blossom,Public,Twin Hills Union Elementary,Elementary,"700 Watertrough Rd., Sebastopol, CA 95472",(707)823-1041,38.3881703,-122.8535253
060753014185,Apple Pie Preschool,Public,Carmel Unified,,"PO Box 250, Big Sur, CA 93920",(831)659-2921,36.0514956,-121.5141615
060001709098,Apple Valley High,Public,Apple Valley Unified,High,"11837 Navajo Rd., Apple Valley, CA 92308",(760)247-7206,34.4674257,-117.189429
060001713290,Apple Valley Unified Preschool Special Education,Public,Apple Valley Unified,,"12555 Navajo Rd., Apple Valley, CA 92308",(760)247-2052,34.4810241,-117.1897154
060001714643,Apple Valley Virtual Academy,Public,Apple Valley Unified,"Elementary,Middle","12555 Navajo Rd., Apple Valley, CA 92308",(760)247-8001,34.4810241,-117.1897154
062547012972,Applied Technology Center,Public,Montebello Unified,High,"1200 West Mines Ave., Montebello, CA 90640",(323)248-2500,34.0053414,-118.1169164
063003011495,Apricot Valley Elementary,Public,Patterson Joint Unified,Elementary,"1320 Henley Pkwy., Patterson, CA 95363",(209)892-4700,37.470625,-121.153325
064347007029,April Lane Elementary,Public,Yuba City Unified,Elementary,"800 April Ln., Yuba City, CA 95991",(530)822-5215,39.1550977,-121.6291842
060231000106,Aptitud Community Academy at Goss,Public,Alum Rock Union Elementary,"Elementary,Middle","2475 Van Winkle Ln., San Jose, CA 95116",(408)928-7656,37.3507736,-121.8313566
062949004535,Aptos High,Public,Pajaro Valley Unified,High,"100 Mariner Way, Aptos, CA 95003",(831)728-7832,36.9770886,-121.8622638
062949004536,Aptos Junior High,Public,Pajaro Valley Unified,Middle,"PO Box 367, Aptos, CA 95003",(831)688-3234,36.9768639,-121.9002613
063441005585,Aptos Middle,Public,San Francisco Unified,Middle,"105 Aptos Ave., San Francisco, CA 94127",(415)469-4520,37.7297669,-122.4658285
062271002821,Aragon Avenue Elementary,Public,Los Angeles Unified,Elementary,"1118 Aragon Ave., Los Angeles, CA 90065",(323)221-5173,34.0948996,-118.2256592
063498005919,Aragon High,Public,San Mateo Union High,High,"900 Alameda de Las Pulgas, San Mateo, CA 94402",(650)558-2999,37.54992050000001,-122.3303828
060174212437,Ararat Charter,Public,Ararat Charter District,Elementary,"6555 Sylmar Ave., Van Nuys, CA 91401",(818)994-2904,34.1898705,-118.4468206
062409003621,Arboga Elementary,Public,Marysville Joint Unified,"Elementary,Middle","1686 Broadway, Olivehurst, CA 95961",(530)741-6101,39.0507057,-121.5559548
062019007589,Arbolita Elementary,Public,La Habra City Elementary,Elementary,"PO Box 307, La Habra, CA 90633",(562)690-2352,33.9173004,-117.9591341
063036002931,Arbuckle Alternative High (Continuation),Public,Pierce Joint Unified,High,"966 Wildwood Rd., Arbuckle, CA 95912",(530)476-2173,39.01233999999999,-122.0553006
063036004734,Arbuckle Elementary,Public,Pierce Joint Unified,Elementary,"PO Box 100, Arbuckle, CA 95912",(530)476-2522,39.01739630000001,-122.0577477
063462005752,Arcade Fundamental Middle,Public,San Juan Unified,Middle,"3500 Edison Ave., Sacramento, CA 95821",(916)971-7300,38.6338547,-121.380644
060297000223,Arcadia High,Public,Arcadia Unified,High,"180 Campus Dr., Arcadia, CA 91007",(626)821-1711,34.1298174,-118.0383691
060300000237,Arcata Elementary,Public,Arcata Elementary,Elementary,"2400 Baldwin St., Arcata, CA 95521",(707)822-4858,40.8820033,-124.0857453
060303000238,Arcata High,Public,Northern Humboldt Union High,High,"1720 M St., Arcata, CA 95521",(707)825-2400,40.8766634,-124.0900939
063879006525,Archie Williams High,Public,Tamalpais Union High,High,"1327 Sir Francis Drake Blvd., San Anselmo, CA 94960",(415)453-8770,37.98316,-122.5733308
060227712465,Architecture Construction & Engineering Charter High (ACE),Public,Architecture Construction & Engr Charter High (ACE) DIST,High,"570 Airport Way, Camarillo, CA 93010",(805)437-1410,34.2062193,-119.0744474
060306000241,Arcohe Elementary,Public,Arcohe Union Elementary,"Elementary,Middle","PO Box 93, Herald, CA 95638",(209)748-2313,38.2947578,-121.2455569
063462005753,Arden Middle,Public,San Juan Unified,Middle,"1640 Watt Ave., Sacramento, CA 95864",(916)971-7306,38.5939393,-121.3824788
061440008138,Ardenwood Elementary,Public,Fremont Unified,Elementary,"33955 Emilia Ln., Fremont, CA 94555",(510)794-0392,37.5730018,-122.0526366
062265002786,Ardis G. Egan Junior High,Public,Los Altos Elementary,Middle,"100 West Portola Ave., Los Altos, CA 94022",(650)917-2200,37.396419,-122.1178927
060558009314,Arellanes (Don Juan Bautista) Elementary,Public,Santa Maria-Bonita,Elementary,"1890 Sandalwood Dr., Santa Maria, CA 93455",(805)361-6860,34.8947636,-120.4828358
060558010660,Arellanes Junior High,Public,Santa Maria-Bonita,Middle,"1890 Sandalwood Dr., Santa Maria, CA 93455",(805)361-6820,34.8947636,-120.4828358
060309000242,Arena Elementary,Public,Arena Union Elementary,"Elementary,Middle","PO Box 45, Point Arena, CA 95468",(707)882-2131,38.908798,-123.6930726
061221008826,Arena High (Continuation),Public,El Segundo Unified,High,"641 Sheldon St., El Segundo, CA 90245",(310)615-2650,33.9249568,-118.4117034
063093014123,Arete Charter Academy,Public,Pleasant Ridge Union Elementary,"Elementary,Middle","16229 DUGGANS RD., Grass Valley, CA 95949",(530)268-2805,39.0740388,-121.1121216
063591006147,Argonaut Elementary,Public,Saratoga Union Elementary,Elementary,"13200 Shadow Mountain Rd., Saratoga, CA 95070",(408)867-4773,37.27676150000001,-122.0256347
060245008787,Argonaut High,Public,Amador County Unified,High,"501 Argonaut Ln., Jackson, CA 95642",(209)257-7700,38.3557459,-120.7920328
063441005586,Argonne Elementary,Public,San Francisco Unified,Elementary,"680 18th Ave., San Francisco, CA 94121",(415)750-8460,37.7752506,-122.476521
060813000782,Argus High (Continuation),Public,Ceres Unified,High,"PO Box 703, Ceres, CA 95307",(209)556-1800,37.5350396,-120.9646866
060246212040,ARISE High,Public,ARISE High District,High,"3301 East 12th St. Ste. 205, Oakland, CA 94601",(510)436-5487,37.7759238,-122.2242306
060243000129,Arizona Middle,Public,Alvord Unified,Middle,"10365 Keller Ave., Riverside, CA 92505",(951)358-1675,33.9341677,-117.4798631
063560007869,Ark Independent Studies,Public,Santa Cruz City High,"Middle,High","840 North Branciforte Ave., Santa Cruz, CA 95062",(831)429-3898,36.9806508,-122.0139504
060243000130,Arlanza Elementary,Public,Alvord Unified,Elementary,"10365 Keller Ave., Riverside, CA 92505",(951)358-1600,33.9341677,-117.4798631
061233011060,Arlene Hein Elementary,Public,Elk Grove Unified,Elementary,"6820 Bellaterra Dr., Elk Grove, CA 95757",(916)714-0654,38.39886389999999,-121.4248322
062271011652,Arleta High,Public,Los Angeles Unified,High,"14200 Van Nuys Blvd., Arleta, CA 91331",(818)686-4100,34.25064890000001,-118.4415659
062769004170,Arlie F. Hutchinson Middle,Public,Norwalk-La Mirada Unified,Middle,"13900 Estero Rd., La Mirada, CA 90638",(562)210-2945,33.9047171,-118.0244506
063942006551,Arlington Elementary,Public,Torrance Unified,Elementary,"17800 Van Ness Ave., Torrance, CA 90504",(310)533-4510,33.8688196,-118.3174509
063462005754,Arlington Heights Elementary,Public,San Juan Unified,Elementary,"6401 Trenton Way, Citrus Heights, CA 95621",(916)971-5234,38.6871306,-121.3139768
062271002825,Arlington Heights Elementary,Public,Los Angeles Unified,Elementary,"1717 Seventh Ave., Los Angeles, CA 90019",(323)735-1021,34.0411926,-118.3250657
063315005131,Arlington High,Public,Riverside Unified,High,"2951 Jackson St., Riverside, CA 92503",(951)352-8316,33.9147571,-117.4278923
060561000504,Arma J. Shull Elementary,Public,Bonita Unified,Elementary,"115 West Allen Ave., San Dimas, CA 91773",(909)971-8208,34.1178471,-117.8078216
062580003863,Armada Elementary,Public,Moreno Valley Unified,Elementary,"25201 John F. Kennedy Dr., Moreno Valley, CA 92551",(951)571-4500,33.9022276,-117.2236287
061336001510,Armijo High,Public,Fairfield-Suisun Unified,High,"824 Washington St., Fairfield, CA 94533",(707)422-7500,38.250141,-122.0361543
062271002826,Arminta Street Elementary,Public,Los Angeles Unified,Elementary,"11530 Strathern St., North Hollywood, CA 91605",(818)765-5911,34.2148387,-118.382633
060318000243,Armona Elementary,Public,Armona Union Elementary,Elementary,"PO Box 368, Armona, CA 93202",(559)583-5010,36.3104492,-119.7093013
063132004836,Armstrong Elementary,Public,Pomona Unified,Elementary,"22750 Beaverhead Dr., Diamond Bar, CA 91765",(909)397-4563,34.0212868,-117.8171274
061233011064,Arnold Adreani Elementary,Public,Elk Grove Unified,Elementary,"9927 Wildhawk West Dr., Sacramento, CA 95829",(916)525-0630,38.4700963,-121.3236785
064015010994,Arnold O. Beckman High,Public,Tustin Unified,High,"300 South C St., Tustin, CA 92780",(714)734-2900,33.7431366,-117.8253119
069113610298,Aromas,Public,Aromas - San Juan Unified,"Elementary,Middle","365 Vega St., Aromas, CA 95004",(831)726-5100,36.890656,-121.6441914
060588000526,Arovista Elementary,Public,Brea-Olinda Unified,Elementary,"900 Eadington Dr., Brea, CA 92821",(714)529-2185,33.9128449,-117.9103582
060819000798,Arrow High (Continuation),Public,Charter Oak Unified,High,"1505 South Sunflower Ave., Glendora, CA 91740",(626)914-3961,34.1115219,-117.8467577
063417005345,Arrowhead Elementary,Public,San Bernardino City Unified,Elementary,"3825 Mountain View Ave., San Bernardino, CA 92405",(909)881-8100,34.1614049,-117.2871525
063417005346,Arrowview Middle,Public,San Bernardino City Unified,Middle,"2299 North G St., San Bernardino, CA 92405",(909)881-8109,34.1372513,-117.2979305
063429013998,Arroyo,Public,San Carlos Elementary,Elementary,"1710 Arroyo Ave., San Carlos, CA 94070",(650)632-8300,37.5002098,-122.260342
063132004837,Arroyo Elementary,Public,Pomona Unified,Elementary,"1605 West Arroyo Ave., Pomona, CA 91768",(909)397-4568,34.0663516,-117.7807822
062847004387,Arroyo Elementary,Public,Ontario-Montclair,"Elementary,Middle","1700 East Seventh St., Ontario, CA 91764",(909)985-1012,34.0881672,-117.6162706
064015006633,Arroyo Elementary,Public,Tustin Unified,Elementary,"300 South C St., Tustin, CA 92780",(714)730-7381,33.7431366,-117.8253119
063684010712,Arroyo Elementary,Public,Simi Valley Unified,Elementary,"225 Ulysses St., Simi Valley, CA 93065",(805)306-4420,34.2734841,-118.7931628
062308003516,Arroyo Grande High,Public,Lucia Mar Unified,High,"495 Valley Rd., Arroyo Grande, CA 93420",(805)474-3200,35.1161444,-120.5806009
063471005845,Arroyo High,Public,San Lorenzo Unified,High,"15701 Lorenzo Ave., San Lorenzo, CA 94580",(510)317-4000,37.6794409,-122.1403527
061212001363,Arroyo High,Public,El Monte Union High,High,"4921 North Cedar Ave., El Monte, CA 91732",(626)444-9201,34.0937234,-118.0212161
061608014263,Arroyo Seco Academy,Public,Greenfield Union Elementary,Elementary,"493 El Camino Real, Greenfield, CA 93927",(831)674-6080,36.326008,-121.2482818
062211002620,Arroyo Seco Elementary,Public,Livermore Valley Joint Unified,Elementary,"5280 Irene Way, Livermore, CA 94550",(925)606-4700,37.6842493,-121.7272105
064251006956,Arroyo Seco Junior High,Public,William S. Hart Union High,Middle,"27171 North Vista Delgado Dr., Valencia, CA 91354",(661)296-0991,34.4419422,-118.5373162
062271008888,Arroyo Seco Museum Science,Public,Los Angeles Unified,"Elementary,Middle","4805 Sycamore Terr., Los Angeles, CA 90042",(323)254-5141,34.1019679,-118.2042899
063417010365,Arroyo Valley High,Public,San Bernardino City Unified,High,"1881 West Baseline St., San Bernardino, CA 92411",(909)381-4295,34.1187581,-117.3274902
063207009619,Arroyo Verde Elementary,Public,Redlands Unified,Elementary,"7701 Church St., Highland, CA 92346",(909)307-5590,34.112994,-117.1723959
060164508299,Arroyo Vista Charter,Public,Arroyo Vista Charter District,"Elementary,Middle","2491 School House Rd., Chula Vista, CA 91915",(619)656-9676,32.6391019,-116.9532309
060744000745,Arroyo Vista Elementary,Public,Capistrano Unified,Elementary,"23371 Arroyo Vista, Rancho Santa Margarita, CA 92688",(949)234-5951,33.6232253,-117.6154635
063750006332,Arroyo Vista Elementary,Public,South Pasadena Unified,Elementary,"335 El Centro St., South Pasadena, CA 91030",(626)441-5840,34.1132857,-118.1667802
060744011701,Arroyo Vista Middle,Public,Capistrano Unified,Middle,"23371 Arroyo Vista, Rancho Santa Margarita, CA 92688",(949)234-5951,33.6232253,-117.6154635
062569010342,Arroyo West Elementary,Public,Moorpark Unified,Elementary,"4117 Country Hill Rd., Moorpark, CA 93021",(805)378-6308,34.2645735,-118.9056827
060004710394,Art Freiler,Public,Tracy Joint Unified,"Elementary,Middle","1975 West Lowell Ave., Tracy, CA 95376",(209)830-3309,37.7475048,-121.4525366
061785002201,Art Haycox Elementary,Public,Hueneme Elementary,Elementary,"5400 Perkins Rd., Oxnard, CA 93033",(805)488-3578,34.1500063,-119.1833117
060162000002,Artesia High,Public,ABC Unified,High,"12108 East Del Amo Blvd., Lakewood, CA 90715",(562)229-7700,33.8466883,-118.1343988
063384011078,Arthur A. Benjamin Health Professions High,Public,Sacramento City Unified,High,"451 McClatchy Way, Sacramento, CA 95818",(916)395-5010,38.562098,-121.511137
061233007608,Arthur C. Butler Elementary,Public,Elk Grove Unified,Elementary,"9180 Brown Rd., Elk Grove, CA 95624",(916)681-7595,38.4485509,-121.3587355
061384001559,Arthur E. Mills Intermediate,Public,Firebaugh-Las Deltas Unified,Elementary,"1976 Morris Kyle Dr., Firebaugh, CA 93622",(559)659-2317,36.8445551,-120.4444793
062100002528,Arthur E. Wright Middle,Public,Las Virgenes Unified,Middle,"4029 North Las Virgenes Rd., Calabasas, CA 91302",(818)880-4614,34.1345136,-118.704801
060636000554,Arthur F. Corey Elementary,Public,Buena Park Elementary,Elementary,"7351 Holder St., Buena Park, CA 90620",(714)522-8389,33.8546404,-118.020484
062241002681,Arthur Hapgood Elementary,Public,Lompoc Unified,Elementary,"PO Box 8000, Lompoc, CA 93438",(805)742-2200,34.64,-120.46
060790007663,Arthur S. Dudley Elementary,Public,Center Joint Unified,Elementary,"8000 Aztec Way, Antelope, CA 95843",(916)338-6470,38.7147854,-121.3815939
060238912683,Arts In Action Community Charter,Public,Arts In Action Community Charter District,Elementary,"5115 Via Corona St., Los Angeles, CA 90022",(323)266-4371,34.0322566,-118.1551038
060193914061,Arts in Action Community Middle,Public,Arts in Action Community Middle District,Middle,"745 South Kern Ave., Los Angeles, CA 90022",(323)266-4371,34.0232415,-118.1656334
062769004181,Arturo Sanchez Elementary,Public,Norwalk-La Mirada Unified,Elementary,"11960 East 162nd St., Norwalk, CA 90650",(562)210-4315,33.8838271,-118.0780624
063429005400,Arundel Elementary,Public,San Carlos Elementary,Elementary,"200 Arundel Rd., San Carlos, CA 94070",(650)508-7311,37.5036206,-122.2742608
061954002339,Arvin High,Public,Kern High,High,"900 VARSITY RD., Arvin, CA 93203",(661)854-5561,35.2181439,-118.8360389
060171111105,ASA Charter,Public,ASA Charter District,"Elementary,High","3512 North E St., San Bernardino, CA 92405",(909)475-3322,34.1563084,-117.2944423
063441001276,Asawa (Ruth) SF Sch of the Arts A Public School,Public,San Francisco Unified,High,"555 Portola Dr., San Francisco, CA 94131",(415)695-5700,37.7453815,-122.4486701
060170408677,ASCEND,Public,ASCEND District,"Elementary,Middle","333 Hegenberger Road Ste. 705, Oakland, CA 94621",(510)879-3140,37.7356796,-122.1984166
062271002827,Ascot Avenue Elementary,Public,Los Angeles Unified,Elementary,"1447 East 45th St., Los Angeles, CA 90011",(323)235-3178,34.0034526,-118.2484095
061074007660,Ashley Falls Elementary,Public,Del Mar Union Elementary,Elementary,"13030 Ashley Falls Dr., San Diego, CA 92130",(858)259-7812,32.9562097,-117.2089884
060964001005,Aspen Elementary,Public,Conejo Valley Unified,Elementary,"1870 Oberlin Ave., Thousand Oaks, CA 91360",(805)495-2810,34.2027587,-118.8832931
060232114004,Aspen Meadow Public,Public,Aspen Meadow Public District,Elementary,"4221 North Hughes Ave., Fresno, CA 93705",(559)369-2456,36.7941106,-119.8359653
060255914587,Aspen Ridge Public,Public,Aspen Ridge Public District,"Middle,High","4221 North Hughes, Fresno, CA 93705",(559)374-0080,36.7941106,-119.8359653
060171410775,Aspen Valley Prep Academy,Public,Aspen Valley Prep Academy District,Elementary,"4221 North Hughes, Fresno, CA 93705",(559)225-7737,36.7941106,-119.8359653
060212312449,Aspire Alexander Twilight College Preparatory Academy,Public,Aspire Alexander Twilight College Prep Acad DIST,Elementary,"1001 22nd Ave. Ste. 100, Oakland, CA 94606",(916)979-1788,37.7825283,-122.2414279
060170312785,Aspire Alexander Twilight Secondary Academy,Public,Aspire Alexander Twilight Secondary Academy District,"Middle,High","1001 22nd Ave. Ste. 100, Oakland, CA 94606",(916)979-1788,37.7825283,-122.2414279
060182110891,Aspire Antonio Maria Lugo Academy,Public,Aspire Antonio Maria Lugo Academy District,Elementary,"1001 22nd Ave. Ste. 100, Oakland, CA 94606",(323)585-1153,37.7825283,-122.2414279
060236712659,Aspire APEX Academy,Public,Aspire APEX Academy District,Elementary,"1001 22nd Ave. Ste. 100, Oakland, CA 94606",(209)466-3861,37.7825283,-122.2414279
060253414483,Aspire Arts & Sciences Academy,Public,Aspire Arts & Sciences Academy District,Elementary,"1605 East March Ln, Stockton, CA 95210",(209)337-3010,38.0036631,-121.2880818
060237611341,Aspire Benjamin Holt College Preparatory Academy,Public,Aspire Benjamin Holt College Preparatory Academy District,High,"1001 22nd Ave. Ste. 100, Oakland, CA 94606",(209)955-1477,37.7825283,-122.2414279
060206913963,Aspire Benjamin Holt Middle,Public,Aspire Benjamin Holt Middle District,Middle,"1001 22nd Ave., Oakland, CA 94606",(209)437-9899,37.7824905,-122.2413705
060204610727,Aspire Berkley Maynard Academy,Public,Aspire Berkley Maynard Academy District,"Elementary,Middle","1001 22nd Ave. Ste. 100, Oakland, CA 94606",(510)658-2900,37.7825283,-122.2414279
060159811189,Aspire Capitol Heights Academy,Public,Aspire Capitol Heights Academy District,"Elementary,Middle","1001 22nd Ave. Ste. 100, Oakland, CA 94606",(916)739-8520,37.7825283,-122.2414279
060155313135,Aspire Centennial College Preparatory Academy,Public,Aspire Centennial College Preparatory Academy District,Middle,"1001 22nd Ave. Ste. 100, Oakland, CA 94606",(323)826-9616,37.7825283,-122.2414279
060211213676,Aspire College Academy,Public,Aspire College Academy District,Elementary,"1001 22nd Ave. Ste. 100, Oakland, CA 94606",(510)562-8030,37.7825283,-122.2414279
060160414051,Aspire East Palo Alto Charter,Public,Aspire East Palo Alto Charter District,"Elementary,Middle","1001 22nd Ave., Oakland, CA 94606",(650)614-9100,37.7824905,-122.2413705
060226212761,Aspire Firestone Academy Charter,Public,Aspire Firestone Academy Charter District,Elementary,"1001 22nd Ave. Ste. 100, Oakland, CA 94606",(323)249-5740,37.7825283,-122.2414279
060247212679,Aspire Gateway Academy Charter,Public,Aspire Gateway Academy Charter District,Elementary,"1001 22nd Ave. Ste. 100, Oakland, CA 94606",(323)249-5740,37.7825283,-122.2414279
060155212331,Aspire Golden State College Preparatory Academy,Public,Aspire Golden State College Preparatory Academy District,"Middle,High","1001 22nd Ave. Ste. 100, Oakland, CA 94606",(510)567-9631,37.7825283,-122.2414279
060241712856,Aspire Inskeep Academy Charter,Public,Aspire Inskeep Academy Charter District,Elementary,"1001 22nd Ave. Ste. 100, Oakland, CA 94606",(323)235-8400,37.7825283,-122.2414279
060233512967,Aspire Juanita Tate Academy Charter,Public,Aspire Juanita Tate Academy Charter District,Elementary,"1001 22nd Ave. Ste. 100, Oakland, CA 94606",(323)235-8400,37.7825283,-122.2414279
060155712077,Aspire Junior Collegiate Academy,Public,Aspire Junior Collegiate Academy District,Elementary,"1001 22nd Ave. Ste. 100, Oakland, CA 94606",(323)583-5421,37.7825283,-122.2414279
060180112244,Aspire Langston Hughes Academy,Public,Aspire Langston Hughes Academy District,"Middle,High","1001 22nd Ave. Ste. 100, Oakland, CA 94606",(209)943-2389,37.7825283,-122.2414279
060221210459,Aspire Lionel Wilson College Preparatory Academy,Public,Aspire Lionel Wilson College Preparatory Academy District,"Middle,High","1001 22nd Ave. Ste.100, Oakland, CA 94606",(510)635-7737,37.7825283,-122.2414279
060244808440,Aspire Monarch Academy,Public,Aspire Monarch Academy District,Elementary,"1001 22nd Ave. Ste. 100, Oakland, CA 94606",(510)568-3101,37.7825283,-122.2414279
060185711655,Aspire Ollin University Preparatory Academy,Public,Aspire Ollin University Preparatory Academy District,"Middle,High","2540 East 58th St., Huntington Park, CA 90255",(323)277-2901,33.9900919,-118.2262859
060166712634,Aspire Pacific Academy,Public,Aspire Pacific Academy District,"Middle,High","1001 22nd Ave. Ste. 100, Oakland, CA 94606",(323)589-2800,37.7825283,-122.2414279
060244512106,Aspire Port City Academy,Public,Aspire Port City Academy District,Elementary,"1001 22nd Ave. Ste. 100, Oakland, CA 94606",(209)943-2389,37.7825283,-122.2414279
060240313890,Aspire Richmond Ca. College Preparatory Academy,Public,Aspire Richmond Ca. College Preparatory Academy District,"Middle,High","1001 22nd Ave. Ste. 100, Oakland, CA 94606",(510)684-8900,37.7825283,-122.2414279
060154713891,Aspire Richmond Technology Academy,Public,Aspire Richmond Technology Academy District,Elementary,"1001 22nd Ave. Ste. 100, Oakland, CA 94606",(510)480-0660,37.7825283,-122.2414279
060245210389,Aspire River Oaks Charter,Public,Aspire River Oaks Charter District,Elementary,"1001 22nd Ave. Ste. 100, Oakland, CA 94606",(209)956-8100,37.7825283,-122.2414279
060205911423,Aspire Rosa Parks Academy,Public,Aspire Rosa Parks Academy District,Elementary,"1001 22nd Ave. Ste. 100, Oakland, CA 94606",(209)944-5590,37.7825283,-122.2414279
060219612950,Aspire Slauson Academy Charter,Public,Aspire Slauson Academy Charter District,Elementary,"1001 22nd Ave. Ste. 100, Oakland, CA 94606",(323)235-8400,37.7825283,-122.2414279
060253214481,Aspire Stockton 6-12 Secondary Academy,Public,Aspire Stockton 6-12 Secondary Academy District,"Middle,High","2428 Belleview Ave., Stockton, CA 95206",(209)337-3010,37.9286027,-121.2617243
060209511809,Aspire Summit Charter Academy,Public,Aspire Summit Charter Academy District,Elementary,"1001 22nd Ave. Ste. 100, Oakland, CA 94606",(209)538-8082,37.7825283,-122.2414279
060152412447,Aspire Titan Academy,Public,Aspire Titan Academy District,Elementary,"1001 22nd Ave. Ste. 100, Oakland, CA 94606",(323)583-5421,37.7825283,-122.2414279
060149610724,Aspire Triumph Technology Academy,Public,Aspire Triumph Technology Academy District,Elementary,"1001 22nd Ave. Ste. 100, Oakland, CA 94606",(510)638-9445,37.7825283,-122.2414279
060177814342,Aspire University Charter,Public,Aspire University Charter District,Elementary,"819 Sunset Ave., Modesto, CA 95351",(209)544-8722,37.618242,-121.003196
060182612511,Aspire Vanguard College Preparatory Academy,Public,Aspire Vanguard College Preparatory Academy District,"Middle,High","1001 22nd Ave. Ste. 100, Oakland, CA 94606",(209)521-3010,37.7825283,-122.2414279
060247608323,Aspire Vincent Shalvey Academy,Public,Aspire Vincent Shalvey Academy District,Elementary,"1001 22nd Ave. Ste. 100, Oakland, CA 94606",(209)931-5399,37.7825283,-122.2414279
060243713121,Assurance Learning Academy,Public,Assurance Learning Academy District,"Middle,High","43145 Business Center Ste. 102-103, Lancaster, CA 93535",(661)272-1225,34.6671523,-118.1305813
060258113884,Astronaut Jose' M. Hernandez Academy,Public,Astronaut Jose' M. Hernandez Academy District,"Elementary,Middle","703 East Swain Rd., Stockton, CA 95207",(209)830-9219,38.0090381,-121.3022278
060330010317,Atascadero Choices in Education Academy (ACE),Public,Atascadero Unified,High,"10801 El Camino Real, Atascadero, CA 93422",(805)462-4350,35.4580008,-120.6390403
060330000247,Atascadero High,Public,Atascadero Unified,High,"1 High School Hill, Atascadero, CA 93422",(805)462-4300,35.4847854,-120.6726516
060330000248,Atascadero Middle,Public,Atascadero Unified,Middle,"6501 Lewis Ave., Atascadero, CA 93422",(805)462-4360,35.49063659999999,-120.6666573
063684006248,Atherwood Elementary,Public,Simi Valley Unified,Elementary,"2350 East Greensward St., Simi Valley, CA 93065",(805)520-6730,34.2845094,-118.7512827
064214014396,ATLAS Learning Academy,Public,Western Placer Unified,"Elementary,High","870 J St., Lincoln, CA 95648",(916)409-2404,38.897077,-121.2975038
062271002828,Atwater Avenue Elementary,Public,Los Angeles Unified,Elementary,"3271 Silver Lake Blvd., Los Angeles, CA 90039",(323)665-5941,34.115704,-118.254944
062466003699,Atwater High,Public,Merced Union High,High,"PO Box 835, Atwater, CA 95301",(209)325-1200,37.3477174,-120.609084
060342011167,Atwater Senior Academy,Public,Atwater Elementary,Middle,"1753 Fifth St., Atwater, CA 95301",(209)357-6515,37.3529887,-120.6081686
060348004813,Auburn Elementary,Public,Auburn Union Elementary,Elementary,"11400 Lariat Ranch Rd., Auburn, CA 95603",(530)887-1958,38.932464,-121.1053508
060985001046,Auburndale Intermediate,Public,Corona-Norco Unified,Middle,"1255 River Rd., Corona, CA 92880",(951)736-3231,33.9035587,-117.5770471
060185514028,Audeo Charter II,Public,Audeo Charter II District,"Elementary,High","10170 Huennekens St., San Diego, CA 92121",(858)678-2050,32.9028025,-117.1841453
060224814228,Audeo Charter School III,Public,Audeo Charter School III District,"Middle,High","10170 Huennekens St., San Diego, CA 92121",(858)678-2050,32.9028025,-117.1841453
060256014578,Audeo Valley Charter,Public,Audeo Valley Charter District,"Middle,High","10170 Huennekens St., San Diego, CA 92121",(951)242-6646,32.9028025,-117.1841453
063492005897,Audubon Elementary,Public,San Mateo-Foster City,Elementary,"841 Gull Ave., Foster City, CA 94404",(650)312-7500,37.5674985,-122.2578745
063432005411,Audubon K-8,Public,San Diego Unified,"Elementary,Middle","8111 San Vicente, San Diego, CA 92114",(619)344-5800,32.7106717,-117.0306293
062271002829,Audubon Middle,Public,Los Angeles Unified,Middle,"4120 11th Ave., Los Angeles, CA 90008",(323)290-6300,34.0088052,-118.3276869
062640003987,August Boeger Middle,Public,Mount Pleasant Elementary,Middle,"1944 Flint Ave., San Jose, CA 95148",(408)223-3770,37.3467588,-121.7996759
063801006399,August Elementary,Public,Stockton Unified,"Elementary,Middle","2101 Sutro Ave., Stockton, CA 95205",(209)933-7160,37.98211879999999,-121.2570033
062361001374,August Knodt Elementary,Public,Manteca Unified,"Elementary,Middle","PO Box 32, Manteca, CA 95336",(209)938-6200,37.8403398,-121.2053963
062706004090,August Schilling Elementary,Public,Newark Unified,Elementary,"36901 Spruce St., Newark, CA 94560",(510)818-3800,37.5279873,-122.0473959
062271013065,Augustus Hawkins High,Public,Los Angeles Unified,High,"825 West 60th St., Los Angeles, CA 90044",(323)789-1282,33.9857852,-118.2883825
060002503570,Aurelia Pennekamp Elementary,Public,Manhattan Beach Unified,Elementary,"325 South Peck Ave., Manhattan Beach, CA 90266",(310)798-6223,33.8767345,-118.3887354
062271011622,Aurora Elementary,Public,Los Angeles Unified,Elementary,"1050 East 52nd Pl., Los Angeles, CA 90011",(323)238-1500,33.994816,-118.2574589
060690000633,Aurora High (Continuation),Public,Calexico Unified,High,"1391 Kloke Rd., Calexico, CA 92231",(760)768-3940,32.6804952,-115.5174088
060245914335,Aurum Preparatory Academy,Public,Aurum Preparatory Academy District,Middle,"1034 66th Ave., Oakland, CA 94621",(415)763-8974,37.7587068,-122.1958233
063264008646,Austin Creek Elementary,Public,Rincon Valley Union Elementary,Elementary,"1480 Snowy Egret Dr., Santa Rosa, CA 95409",(707)538-2122,38.4653105,-122.6375931
069113511049,Avalon Elementary,Public,Val Verde Unified,Elementary,"1815 East Rider St., Perris, CA 92571",(951)490-0360,33.8306406,-117.1851791
062271002831,Avalon Gardens Elementary,Public,Los Angeles Unified,Elementary,"13940 South San Pedro St., Los Angeles, CA 90061",(310)532-8540,33.9052311,-118.2676342
062250007299,Avalon K-12,Public,Long Beach Unified,"Elementary,High","PO Box 557, Avalon, CA 90704",(310)510-0790,33.3428193,-118.3282279
060002909508,Avaxat Elementary,Public,Murrieta Valley Unified,Elementary,"24300 Rancho Las Brisas Dr., Murrieta, CA 92562",(951)696-1402,33.5850904,-117.189327
063227007334,Avenal Elementary,Public,Reef-Sunset Unified,Elementary,"500 South First Ave., Avenal, CA 93204",(559)386-5173,36.0037332,-120.1384286
063227007335,Avenal High,Public,Reef-Sunset Unified,High,"601 Mariposa St., Avenal, CA 93204",(559)386-5253,36.0090602,-120.1298983
064068002907,Avery Middle,Public,Vallecito Union,Middle,"PO Box 329, Avery, CA 95224",(209)795-8520,38.2272338,-120.3147208
060218112028,Aveson Global Leadership Academy,Public,Aveson Global Leadership Academy District,"Middle,High","1919 East Pinecrest Dr., Altadena, CA 91001",(626)797-1438,34.1920255,-118.1116023
060207411929,Aveson School of Leaders,Public,Aveson School of Leaders District,Elementary,"1919 East Pinecrest Dr., Altadena, CA 91001",(626)797-1440,34.1920255,-118.1116023
060750009747,Aviara Oaks Elementary,Public,Carlsbad Unified,Elementary,"6225 El Camino Real, Carlsbad, CA 92009",(760)331-6000,33.1228815,-117.2674897
060750008606,Aviara Oaks Middle,Public,Carlsbad Unified,Middle,"6225 El Camino Real, Carlsbad, CA 92009",(760)331-6100,33.1228815,-117.2674897
060142807146,Aviation Elementary,Public,Wiseburn Unified,Elementary,"5403 West 138th St., Hawthorne, CA 90250",(310)725-2151,33.906727,-118.3749001
060681000604,Avocado Elementary,Public,Cajon Valley Union,Elementary,"3845 Avocado School Rd., La Mesa, CA 91941",(619)588-3100,32.7506902,-116.9599579
062025002424,Avondale Elementary,Public,La Mesa-Spring Valley,Elementary,"4750 Date Ave., La Mesa, CA 91942",(619)668-5880,32.764884,-117.0224456
061455007285,Ayer Elementary,Public,Fresno Unified,Elementary,"5272 East Lowe Ave., Fresno, CA 93727",(559)253-6400,36.7304939,-119.7142565
062637003934,Ayers Elementary,Public,Mt. Diablo Unified,Elementary,"5120 Myrtle Dr., Concord, CA 94521",(925)682-7686,37.96485680000001,-121.9604444
061455001705,Aynesworth Elementary,Public,Fresno Unified,Elementary,"4765 East Burns Ave., Fresno, CA 93725",(559)253-6410,36.713153,-119.7377273
060360000268,Azusa High,Public,Azusa Unified,High,"PO Box 500, Azusa, CA 91702",(626)815-3400,34.1336186,-117.9075627
061336009815,B. Gale Wilson Middle,Public,Fairfield-Suisun Unified,"Elementary,Middle","3301 Cherry Hills Ct., Fairfield, CA 94534",(707)421-4225,38.2719818,-122.0811477
060147413927,B. Roberto Cruz Leadership Academy,Public,B. Roberto Cruz Leadership Academy District,High,"14281 Story Rd., San Jose, CA 95127",(408)471-4680,37.3593018,-121.8152675
062724004122,Back Bay High,Public,Newport-Mesa Unified,High,"2985 Bear St. Bldg. A, Costa Mesa, CA 92626",(949)515-6900,33.679661,-117.8953316
063753006340,Baden High (Continuation),Public,South San Francisco Unified,High,"825 Southwood Dr., South San Francisco, CA 94080",(650)877-8769,37.6496528,-122.4361737
062580009583,Badger Springs Middle,Public,Moreno Valley Unified,Middle,"24750 Delphinium Ave., Moreno Valley, CA 92553",(951)571-4200,33.9085779,-117.2331776
060819000799,Badillo Elementary,Public,Charter Oak Unified,Elementary,"1771 East Old Badillo Ave., Covina, CA 91724",(626)966-1753,34.0873682,-117.8543447
064256006966,Baechtel Grove Middle,Public,Willits Unified,Middle,"1277 Blosser Ln., Willits, CA 95490",(707)459-2417,39.3986877,-123.3584188
060714000650,Bagby Elementary,Public,Cambrian,Elementary,"1840 Harris Ave., San Jose, CA 95124",(408)377-3882,37.2775718,-121.9220664
063509005932,Bahia Vista Elementary,Public,San Rafael City Elementary,Elementary,"125 Bahia Way, San Rafael, CA 94901",(415)485-2415,37.9666203,-122.4978659
