NCES-School-ID,School-Name,School-Type,NCES-District-ID,District,School-Level,Address,Phone,Latitude,Longitude
262895007802,12th Street Elementary,Public,2628950,Portage Public Schools,Elementary,"6501 SOUTH 12TH ST, PORTAGE, MI 49024",(269)323-6900,42.2201582,-85.6464438
262016008622,54th Street Academy,Public,2620160,Kelloggsville Public Schools,High,"173 54TH ST SW, GRAND RAPIDS, MI 49548",(616)531-7433,42.8682536,-85.66838949999999
261884009043,56 Building at Georgetown,Public,2618840,Hudsonville Public School District,Elementary,"8175 36TH AVE, HUDSONVILLE, MI 49426",(616)272-7100,42.9171864,-85.8755053
261925005600,AA Rather School,Public,2619250,Ionia Public Schools,Elementary,"380 EAST TUTTLE RD, IONIA, MI 48846",(616)527-1720,42.95108,-85.0673812
260282004004,Abbot School,Public,2602820,Ann Arbor Public Schools,Elementary,"2670 SEQUOIA PKWY, ANN ARBOR, MI 48103",(734)994-1901,42.2936986,-83.7850862
261644008574,Aberdeen Academy,Public,2616440,Grand Rapids Public Schools,Middle,"928 Aberdeen St NE, Grand Rapids, MI 49505",(616)819-2868,43.00582,-85.6461103
260033004509,Academic and Career Education Academy,Public,2600330,Academic and Career Education Academy,High,"884 EAST ISABELLA RD, MIDLAND, MI 48640",(989)631-5202,43.6118295,-84.3352044
260858008255,Academy 21,Public,2608580,Center Line Public Schools,"Elementary,High","11300 ENGLEMAN RD, WARREN, MI 48089",(586)510-2062,42.48022659999999,-83.01173519999999
260016601667,Academy for Business and Technology Elementary,Public,2600166,Academy for Business and Technology,Elementary,"5277 CALHOUN ST, DEARBORN, MI 48126",(313)581-2223,42.3262246,-83.1751841
260016601035,Academy for Business and Technology High School,Public,2600166,Academy for Business and Technology,"Middle,High","19625 WOOD ST, MELVINDALE, MI 48122",(313)382-3422,42.2747123,-83.196687
262313008413,Academy of Science Math and Technology Early College High Sc,Public,2623130,Mason County Central Schools,High,"2130 W US 10, Ludington, MI 49431",(231)843-5935,43.9564247,-86.33286609999999
260110308927,Academy of the Americas at Logan,Public,2601103,Detroit Public Schools Community District,Elementary,"3811 CICOTTE ST, DETROIT, MI 48210",(313)873-7441,42.3281054,-83.1220912
260110308803,Academy of The Americas High School,Public,2601103,Detroit Public Schools Community District,"Elementary,High","5680 KONKEL ST, DETROIT, MI 48210",(313)335-1310,42.3268233,-83.1100927
260030801884,Academy of Warren,Public,2600308,Academy of Warren,Middle,"13943 EAST 8 MILE RD, WARREN, MI 48089",(586)552-8010,42.4496823,-82.9818466
263597008491,Academy West Alternative Education,Public,2635970,Westwood Heights Schools,"Middle,High","3223 WEST CARPENTER RD, FLINT, MI 48504",(810)591-0123,43.0730393,-83.7424305
263663008789,ACCE,Public,2636630,Ypsilanti Community Schools,"Middle,High","1076 Ecorse Road, Ypsilanti, MI 48198",(734)221-1691,42.2348854,-83.5904621
261452002043,Accelerated Learning Academy,Public,2614520,Flint School District of the City of,"Middle,High","1602 S AVERILL AVE, FLINT, MI 48503",(810)760-1805,43.0109216,-83.6451486
260273001594,ACES Academy,Public,2602730,Alpena Public Schools,"Middle,High","3303 S THIRD AVE, ALPENA, MI 49707",(989)358-5170,45.0560109,-83.469083
260096307974,Achieve Charter Academy,Public,2600963,Achieve Charter Academy,Middle,"3250 DENTON RD, CANTON, MI 48188",(734)397-0960,42.2813981,-83.5279257
262496001591,Ackerson High School,Public,2624960,Napoleon Community Schools,High,"PO Box 308, Napoleon, MI 49261",(517)905-5718,42.1599357,-84.2450019
263663008476,ACTech High School,Public,2636630,Ypsilanti Community Schools,High,"2095 Packard Road, YPSILANTI, MI 48197",(734)221-1001,42.2432871,-83.6451563
260000603854,AD Johnston JrSr High School,Public,2600006,Bessemer Area School District,"Middle,High","100 WEST LEAD ST, BESSEMER, MI 49911",(906)667-0413,46.4815841,-90.05337279999999
261461005152,Ada Elementary School,Public,2614610,Forest Hills Public Schools,Elementary,"731 ADA DR SE, ADA, MI 49301",(616)493-8940,42.9526245,-85.49432709999999
261461001312,Ada Vista Elementary School,Public,2614610,Forest Hills Public Schools,Elementary,"7192 BRADFIELD AVE SE, ADA, MI 49301",(616)493-8970,42.9539687,-85.49321599999999
262382006050,Adams Elementary School,Public,2623820,Midland Public Schools,Elementary,"1005 ADAMS DR, MIDLAND, MI 48642",(989)923-6037,43.6462379,-84.2156625
260001003860,Adams Elementary School,Public,2600010,Sigel Township S/D #3F,"Elementary,Middle","4151 SECTION LINE RD, BAD AXE, MI 48413",(989)269-8944,43.8427306,-82.85753389999999
263666008300,Adams Elementary School,Public,2636660,Zeeland Public Schools,Elementary,"7447 ADAMS ST, ZEELAND, MI 49464",(616)748-3476,42.7851742,-85.9669024
260001503879,Adams Middle School,Public,2600015,Wayne-Westland Community School District,Middle,"33475 PALMER RD, WESTLAND, MI 48186",(734)419-2375,42.2940861,-83.36942049999999
260113908944,AdamsYoung Building,Public,2601139,Lincoln-King Adams-Young Academy,Elementary,"13130 GROVE ST, DETROIT, MI 48235",(734)734-7193,42.4147478,-83.1750118
263030002070,Addams Elementary and ECC,Public,2630300,Royal Oak Schools,Elementary,"2222 WEST WEBSTER RD, ROYAL OAK, MI 48073",(248)288-3100,42.511409,-83.1719969
260192007996,Addison Elementary School,Public,2601920,Addison Community Schools,Elementary,"219 NORTH COMSTOCK ST, ADDISON, MI 49220",(517)547-6910,41.9883043,-84.34390069999999
260192003923,Addison High School,Public,2601920,Addison Community Schools,High,"219 NORTH COMSTOCK ST, ADDISON, MI 49220",(517)547-6900,41.9883043,-84.34390069999999
260192008311,Addison Middle School,Public,2601920,Addison Community Schools,Middle,"219 N COMSTOCK ST, ADDISON, MI 49220",(517)547-6900,41.9883043,-84.34390069999999
263231006771,Adlai Stevenson Elementary School,Public,2632310,Southfield Public School District,Elementary,"27777 LAHSER RD, SOUTHFIELD, MI 48034",(248)746-8840,42.492657,-83.2633456
263447007009,Adlai Stevenson High School,Public,2634470,Utica Community Schools,High,"39701 DODGE PARK RD, STERLING HEIGHTS, MI 48313",(586)797-1900,42.586797,-83.01314169999999
260001503905,Adlai Stevenson Middle School,Public,2600015,Wayne-Westland Community School District,Middle,"38501 PALMER RD, WESTLAND, MI 48186",(734)419-2350,42.2937848,-83.41807949999999
260195002061,Adrian Community High School,Public,2601950,Adrian Public Schools,High,"801 EAST MAUMEE ST, ADRIAN, MI 49221",(517)263-1332,41.8972115,-84.02546970000002
260195003927,Adrian High School,Public,2601950,Adrian Public Schools,"Middle,High","785 RIVERSIDE AVE, ADRIAN, MI 49221",(517)263-2181,41.9103065,-84.0469231
268070008765,Adult Transition Services,Public,2680700,Livingston ESA,,"1429 W Grand River Ave, Howell, MI 48843",(517)540-6876,42.6104945,-83.9528337
260025507882,Advanced Technology Academy,Public,2600255,Advanced Technology Academy,High,"4801 OAKMAN BLVD, DEARBORN, MI 48126",(313)625-4700,42.3222836,-83.1692083
261803000962,Advantage Alternative Program,Public,2618030,Hazel Park School District of the City of,"Elementary,High","1620 EAST ELZA AVE, HAZEL PARK, MI 48030",(248)658-5280,42.4513215,-83.0871147
260010600688,AGBU AlexMarie Manoogian School,Public,2600106,AGBU Alex-Marie Manoogian School,"Elementary,High","22001 NORTHWESTERN HWY, SOUTHFIELD, MI 48075",(248)569-2988,42.4541787,-83.2192831
260198008428,Airport Center for Education,Public,2601980,Airport Community Schools,"Elementary,High","11330 GRAFTON RD, CARLETON, MI 48117",(734)654-4071,42.0402423,-83.3763642
260198008678,Airport Middle College,Public,2601980,Airport Community Schools,High,"11330 GRAFTON RD, CARLETON, MI 48117",(734)654-4071,42.0402423,-83.3763642
260198003939,Airport Senior High School,Public,2601980,Airport Community Schools,High,"11330 GRAFTON RD, CARLETON, MI 48117",(734)654-6208,42.0402423,-83.3763642
260201003945,AkronFairgrove Elem School,Public,2602010,Akron-Fairgrove Schools,Elementary,"4335 LYNN ST, AKRON, MI 48701",(989)691-5141,43.5676577,-83.5180824
260201003946,AkronFairgrove JrSr High School,Public,2602010,Akron-Fairgrove Schools,"Middle,High","PO Box 217, Fairgrove, MI 48733",(989)693-6112,43.5236323,-83.54329249999999
260201009000,AkronFairgrove Schools Academic Learning Center,Public,2602010,Akron-Fairgrove Schools,High,"2800 NORTH THOMAS RD, FAIRGROVE, MI 48733",(989)693-6163,43.54625069999999,-83.541755
260110304637,AL Holmes Academy of Blended Learning,Public,2601103,Detroit Public Schools Community District,Middle,"8950 CRANE ST, DETROIT, MI 48213",(313)866-5644,42.3947356,-83.0142329
262307005992,Alaiedon Elementary School,Public,2623070,Mason Public Schools (Ingham),Elementary,"1723 OKEMOS RD, MASON, MI 48854",(517)676-6499,42.6323021,-84.4340924
262706000015,Alamo Elementary School,Public,2627060,Otsego Public Schools,Elementary,"8184 NORTH 6TH ST, KALAMAZOO, MI 49009",(269)694-7603,42.3784213,-85.7072214
262181005875,Alanson Public School,Public,2621810,Alanson Public Schools,High,"7400 NORTH ST, ALANSON, MI 49706",(231)548-2261,45.4441419,-84.78973909999999
260204003949,Alba School,Public,2602040,Alba Public Schools,High,"5935 ELM ST, ELMIRA, MI 49730",(231)584-2000,44.9777684,-84.9700797
260001503880,Albert Schweitzer Elementary School,Public,2600015,Wayne-Westland Community School District,Elementary,"2601 TREADWELL ST, WESTLAND, MI 48186",(734)419-2750,42.2890371,-83.40091210000001
260216003955,Alcona Community High School,Public,2602160,Alcona Community Schools,"Middle,High","51 N BARLOW RD, HARRISVILLE, MI 48740",(989)736-8534,44.6571167,-83.4058658
260216007445,Alcona Elementary School,Public,2602160,Alcona Community Schools,Elementary,"181 N BARLOW RD, HARRISVILLE, MI 48740",(989)736-8146,44.657188,-83.4030485
262874006426,Alcott School,Public,2628740,Pontiac City School District,Elementary,"460 WEST KENNETT RD, PONTIAC, MI 48340",(248)451-7910,42.6658278,-83.3176422
260195003929,Alexander Elementary School,Public,2601950,Adrian Public Schools,Elementary,"520 CHERRY ST, ADRIAN, MI 49221",(517)263-9533,41.9067269,-84.04252
260001503881,Alexander Hamilton Elementary School,Public,2600015,Wayne-Westland Community School District,Elementary,"1031 SOUTH SCHUMAN ST, WESTLAND, MI 48186",(734)419-2650,42.3022089,-83.37034829999999
263030006647,Alfred E Upton Elementary School,Public,2630300,Royal Oak Schools,Elementary,"4400 MANDALAY AVE, ROYAL OAK, MI 48073",(248)549-4968,42.5292817,-83.18595479999999
260000107831,Alger Maximum Correctional Facility,Public,2600001,Michigan Department of Corrections,High,"PO Box 600, Munising, MI 49862",(906)387-5000,46.4301821,-86.6963578
261644008575,Alger Middle School,Public,2616440,Grand Rapids Public Schools,Middle,"921 Alger St SE, Grand Rapids, MI 49507",(616)819-6200,42.9207621,-85.64418599999999
260219008684,Algonac Alternative Education,Public,2602190,Algonac Community School District,"Middle,High","9541 PHELPS RD, CLAY, MI 48001",(810)794-4911,42.6278421,-82.5852817
260219003960,Algonac JuniorSenior High School,Public,2602190,Algonac Community School District,"Middle,High","5200 TAFT RD, CLAY, MI 48001",(810)794-4911,42.627608,-82.5826499
260219008693,Algonquin Elementary School,Public,2602190,Algonac Community School District,Elementary,"9185 Marsh Road, Clay, MI 48001",(810)794-9317,42.6347,-82.543177
260957004460,Algonquin Middle School,Public,2609570,Chippewa Valley Schools,Middle,"19150 BRIARWOOD LN, CLINTON TWP, MI 48036",(586)723-3500,42.572905,-82.9227329
261893008984,Alice I Ferguson Early Childhood Center,Public,2618930,Huron School District,Elementary,"24678 MERRIMAN RD, NEW BOSTON, MI 48164",(734)984-1330,42.1245738,-83.3438754
263231008151,Alice M Birney K8 School,Public,2632310,Southfield Public School District,Middle,"27225 Evergreen Road, Southfield, MI 48076",(248)746-8800,42.4894243,-83.24312379999999
260222000110,Allegan Alternative High School,Public,2602220,Allegan Public Schools,High,"550 5TH ST, ALLEGAN, MI 49010",(269)673-5433,42.5229155,-85.84309669999999
260222003966,Allegan High School,Public,2602220,Allegan Public Schools,High,"550 5TH ST, ALLEGAN, MI 49010",(269)673-7002,42.5229155,-85.84309669999999
260222009016,Allegan Online K8,Public,2602220,Allegan Public Schools,"Elementary,Middle","550 5TH ST, ALLEGAN, MI 49010",(269)673-5431,42.5229155,-85.84309669999999
263234000295,Allen Elementary School,Public,2632340,Southgate Community School District,Elementary,"16500 MCCANN ST, SOUTHGATE, MI 48195",(734)246-4644,42.1881197,-83.2102073
260252003971,Allen Park High School,Public,2602520,Allen Park Public Schools,High,"18401 CHAMPAIGN RD, ALLEN PARK, MI 48101",(313)827-1200,42.2485671,-83.22634769999999
260252003974,Allen Park Middle School,Public,2602520,Allen Park Public Schools,Middle,"8401 VINE AVE, ALLEN PARK, MI 48101",(313)827-2200,42.2441572,-83.20391459999999
260255008909,Allendale Early Childhood Center,Public,2602550,Allendale Public Schools,Elementary,"10455 TIMBERLINE DR, ALLENDALE, MI 49401",(616)892-5580,42.9591854,-85.9649116
262346001838,Allendale Elementary School,Public,2623460,Melvindale-Northern Allen Park Schools,Elementary,"3201 OAKWOOD BLVD, MELVINDALE, MI 48122",(313)389-4664,42.2799975,-83.1770604
260255003976,Allendale High School,Public,2602550,Allendale Public Schools,"Middle,High","10760 68TH AVE, ALLENDALE, MI 49401",(616)892-5585,42.9647192,-85.9503598
260255000255,Allendale Middle School,Public,2602550,Allendale Public Schools,Middle,"7161 PLEASANT VIEW CT, ALLENDALE, MI 49401",(616)892-5595,42.9624682,-85.96251749999999
260264003980,Alma Senior High School,Public,2602640,Alma Public Schools,High,"1500 PINE AVE, ALMA, MI 48801",(989)463-3111,43.3917815,-84.6553477
260267003982,Almont High School,Public,2602670,Almont Community Schools,"Middle,High","4701 HOWLAND RD, ALMONT, MI 48003",(810)798-8595,42.93033080000001,-83.041381
260267001839,Almont Middle School,Public,2602670,Almont Community Schools,"Elementary,Middle","4624 KIDDER RD, ALMONT, MI 48003",(810)798-3578,42.9310751,-83.0386662
260273003984,Alpena High School,Public,2602730,Alpena Public Schools,"Middle,High","3303 SOUTH THIRD AVE, ALPENA, MI 49707",(989)358-5200,45.0560109,-83.469083
262028005707,Alpine Elementary School,Public,2620280,Kenowa Hills Public Schools,Elementary,"4730 BAUMHOFF AVE NW, COMSTOCK PARK, MI 49321",(616)784-0884,43.0498037,-85.7181289
260103408339,Alternative Educational Academy of Iosco County,Public,2601034,Alternative Educational Academy of Iosco County,"Middle,High","40 W M 55, TAWAS CITY, MI 48763",(989)362-2575,44.26946119999999,-83.5146973
260109208670,Alternative Educational Academy of Ogemaw County,Public,2601092,Alternative Educational Academy of Ogemaw County,"Middle,High","2479 S M 76, West Branch, MI 48661",(989)343-9070,44.2640159,-84.2166562
262205005925,Alto Elementary School,Public,2622050,Lowell Area Schools,Elementary,"6150 BANCROFT AVE SE, ALTO, MI 49302",(616)987-2600,42.8530183,-85.3792557
261884005559,Alward Elementary School,Public,2618840,Hudsonville Public School District,Elementary,"3811 PORT SHELDON ST, HUDSONVILLE, MI 49426",(616)669-6700,42.8861901,-85.87549179999999
263009006600,Amanda Moore Elementary School,Public,2630090,Romeo Community Schools,Elementary,"209 DICKENSON ST, ROMEO, MI 48065",(586)752-0260,42.8056022,-83.0087219
262895006484,Amberly Elementary School,Public,2628950,Portage Public Schools,Elementary,"6637 AMBERLY ST, PORTAGE, MI 49024",(269)323-5900,42.2202302,-85.62324749999999
260098608231,American International Academy  Elementary,Public,2600986,American International Academy,Elementary,"300 Henry Ruff Road, Westland, MI 48186",(734)713-5525,42.30863040000001,-83.3409425
260098608795,American International Academy High SchoolMiddle Schooll,Public,2600986,American International Academy,"Middle,High","28955 ROSEWOOD ST, INKSTER, MI 48141",(734)713-5525,42.2988236,-83.3263963
260098608907,American International Academy Upper Elementary,Public,2600986,American International Academy,Elementary,"27100 AVONDALE ST, INKSTER, MI 48141",(734)713-5525,42.3048932,-83.3082915
260031201763,American Montessori Academy Elementary,Public,2600312,American Montessori Academy,Elementary,"14800 MIDDLEBELT RD, LIVONIA, MI 48154",(734)525-7100,42.392947,-83.3332763
260031208089,American Montessori Academy Upper Elementary,Public,2600312,American Montessori Academy,"Elementary,Middle","30055 JOY RD, WESTLAND, MI 48185",(313)533-0000,42.353583,-83.3381781
262598006244,Amerman Elementary School,Public,2625980,Northville Public Schools,Elementary,"847 NORTH CENTER ST, NORTHVILLE, MI 48167",(248)465-2100,42.4404287,-83.4843661
260279003997,Anchor Bay High School,Public,2602790,Anchor Bay School District,High,"6319 COUNTY LINE RD, IRA, MI 48023",(586)648-2525,42.7118036,-82.72628449999999
260279000196,Anchor Bay Middle School North,Public,2602790,Anchor Bay School District,Middle,"52805 ASHLEY DR, NEW BALTIMORE, MI 48047",(586)725-7373,42.6898278,-82.74162580000001
260279001142,Anchor Bay Middle School South,Public,2602790,Anchor Bay School District,Middle,"48650 SUGARBUSH RD, CHESTERFIELD, MI 48047",(586)949-4510,42.6627765,-82.7898293
260696004293,Anderson Elementary School,Public,2606960,Bronson Community School District,Elementary,"335 EAST COREY ST, BRONSON, MI 49028",(517)369-3234,41.8721554,-85.1876427
261635000509,Anderson Elementary School,Public,2616350,Grand Blanc Community Schools,Elementary,"5290 LEROY ST, GRAND BLANC, MI 48439",(810)591-5829,42.9506636,-83.6685076
260501004186,Anderson Middle School,Public,2605010,Berkley School District,"Elementary,Middle","3205 CATALPA DR, BERKLEY, MI 48072",(248)837-8200,42.49539980000001,-83.1905622
260990004471,Andersonville Elementary School,Public,2609900,Clarkston Community School District,Elementary,"10350 ANDERSONVILLE RD, DAVISBURG, MI 48350",(248)623-5200,42.7303794,-83.49381269999999
261425005065,Andrew G Schmidt Middle School,Public,2614250,Fenton Area Public Schools,Middle,"3255 DONALDSON DR, FENTON, MI 48430",(810)591-7700,42.7874402,-83.72999089999999
263384006927,Andrews Elementary School,Public,2633840,Three Rivers Community Schools,Elementary,"200 SOUTH DOUGLAS AVE, THREE RIVERS, MI 49093",(269)279-1140,41.9410245,-85.6414698
260501004190,Angell Elementary School,Public,2605010,Berkley School District,Elementary,"3849 BEVERLY BLVD, BERKLEY, MI 48072",(248)837-8500,42.5005511,-83.1987911
260282004005,Angell School,Public,2602820,Ann Arbor Public Schools,Elementary,"1608 SOUTH UNIVERSITY AVE, ANN ARBOR, MI 48104",(734)994-1907,42.2745599,-83.7278
262895006485,Angling Road Elementary School,Public,2628950,Portage Public Schools,Elementary,"5340 ANGLING RD, PORTAGE, MI 49024",(269)323-6000,42.2396417,-85.6290619
260282004006,Ann Arbor Open at Mack School,Public,2602820,Ann Arbor Public Schools,"Elementary,Middle","920 MILLER AVE, ANN ARBOR, MI 48103",(734)994-1910,42.2874372,-83.7596415
260282004021,Ann Arbor STEAM at Northside School,Public,2602820,Ann Arbor Public Schools,"Elementary,Middle","912 BARTON DR, ANN ARBOR, MI 48105",(734)994-1958,42.29879280000001,-83.7334427
260110304641,Ann Arbor Trail Magnet School,Public,2601103,Detroit Public Schools Community District,"Elementary,Middle","7635 Chatham, Detroit, MI 48239",(313)274-8560,42.3470854,-83.2610545
260000501683,Ann J Kellogg School,Public,2600005,Battle Creek Public Schools,Elementary,"306 CHAMPION ST, BATTLE CREEK, MI 49037",(269)965-9773,42.327188,-85.19273629999999
263225006752,Ann L Dolsen Elementary School,Public,2632250,South Lyon Community Schools,Elementary,"56775 RICE ST, NEW HUDSON, MI 48165",(248)573-8400,42.509545,-83.6134888
262976006552,Ann Visger K5 Preparatory Academy,Public,2629760,River Rouge School District of the City of,Elementary,"11121 WEST JEFFERSON AVE, RIVER ROUGE, MI 48218",(313)297-9648,42.2646012,-83.13634239999999
261161004618,Annapolis High School,Public,2611610,Dearborn Heights School District #7,High,"4650 CLIPPERT ST, DEARBORN HEIGHTS, MI 48125",(313)203-3300,42.2759515,-83.24671359999999
261899007843,Apollo Center,Public,2618990,Huron Valley Schools,High,"2029 NORTH MILFORD RD, HIGHLAND, MI 48357",(248)684-8134,42.656987,-83.6198362
263237007892,Appleview Elementary School,Public,2632370,Sparta Area Schools,Elementary,"240 E SPARTAN DR, SPARTA, MI 49345",(616)887-1743,43.14807940000001,-85.7136301
260018101053,Arbor Academy,Public,2600181,Arbor Academy,"Elementary,Middle","55 ARBOR ST, BATTLE CREEK, MI 49015",(269)963-5851,42.2999982,-85.21328679999999
260098908273,Arbor Preparatory High School,Public,2600989,Arbor Preparatory High School,High,"6800 Hitchingham Road, Ypsilanti, MI 48197",(734)961-9700,42.1901448,-83.62263399999999
262415006091,Arborwood Elementary School,Public,2624150,Monroe Public Schools,,"1135 RIVERVIEW AVE, MONROE, MI 48162",(734)265-4500,41.9292576,-83.38297730000001
261995005653,Arcadia Elementary School,Public,2619950,Kalamazoo Public Schools,Elementary,"932 Boswell Ln, Kalamazoo, MI 49006",(269)337-0530,42.282317,-85.6353367
262088005755,Ardmore Elementary School,Public,2620880,Lakeview Public Schools (Macomb),Elementary,"27001 GREATER MACK AVE, SAINT CLAIR SHORES, MI 48081",(586)445-4160,42.4904745,-82.8931204
260324008269,Armada Continuing Education Center,Public,2603240,Armada Area Schools,High,"23211 PROSPECT AVE, ARMADA, MI 48005",(586)784-2160,42.8460502,-82.8825683
260324004042,Armada High School,Public,2603240,Armada Area Schools,High,"23655 ARMADA CENTER RD, ARMADA, MI 48005",(586)784-2400,42.8512441,-82.8765329
260324004044,Armada Middle School,Public,2603240,Armada Area Schools,Middle,"23550 ARMADA CENTER RD, ARMADA, MI 48005",(586)784-2500,42.8495201,-82.8789334
262007005693,Armstrong Middle School,Public,2620070,Kearsley Community School District,Middle,"G6161 HOPKINS RD, FLINT, MI 48506",(810)591-9929,43.0771077,-83.5977732
260252003972,Arno Elementary School,Public,2602520,Allen Park Public Schools,Elementary,"7500 FOX AVE, ALLEN PARK, MI 48101",(313)827-1050,42.2506242,-83.2056693
262379006045,Arnold Elementary School,Public,2623790,Michigan Center School District,Elementary,"400 SOUTH STATE ST, MICHIGAN CENTER, MI 49254",(517)764-5700,42.2237853,-84.3386132
263045006700,Arrowwood Elementary School,Public,2630450,Saginaw Township Community Schools,Elementary,"5410 SEIDEL RD, SAGINAW, MI 48638",(989)797-1835,43.4232802,-84.0224235
263039008612,Arthur Eddy Academy,Public,2630390,Saginaw School District of the City of,,"1000 CATHAY ST, SAGINAW, MI 48601",(989)399-5250,43.4422937,-83.9093864
263039006656,Arthur Hill High School,Public,2630390,Saginaw School District of the City of,High,"3115 MACKINAW ST, SAGINAW, MI 48602",(989)399-5800,43.4283261,-83.9916207
260027301308,Arts Academy in the Woods,Public,2600273,Arts Academy in the Woods,"Middle,High","32101 Caroline, Fraser, MI 48026",(586)294-0391,42.5324123,-82.95194149999999
260026701403,Arts and Technology Academy of Pontiac,Public,2600267,Arts and Technology Academy of Pontiac,High,"888 ENTERPRISE DR, PONTIAC, MI 48341",(248)452-9309,42.6211153,-83.2518175
260327004045,Arvon Township School,Public,2603270,Arvon Township School District,"Elementary,Middle","21798 SKANEE RD, SKANEE, MI 49962",(906)524-7336,46.865722,-88.19220779999999
260001708240,Ascent High School,Public,2600017,Bad Axe Public Schools,High,"200 NORTH BARRIE RD, BAD AXE, MI 48413",(989)269-2737,43.8078827,-83.0162471
263234001932,Asher School,Public,2632340,Southgate Community School District,High,"14101 LEROY ST, SOUTHGATE, MI 48195",(734)246-4633,42.1905002,-83.19494619999999
260348004047,Ashley Elementary School,Public,2603480,Ashley Community Schools,Elementary,"PO Box 6, Ashley, MI 48806",(989)847-2102,43.186696,-84.47443469999999
260279003998,Ashley Elementary School,Public,2602790,Anchor Bay School District,Elementary,"52347 ASHLEY ST, NEW BALTIMORE, MI 48047",(586)725-2801,42.6864032,-82.7371695
260348004046,Ashley High School,Public,2603480,Ashley Community Schools,High,"PO Box 6, Ashley, MI 48806",(989)847-2514,43.186696,-84.47443469999999
260348001954,Ashley Middle School,Public,2603480,Ashley Community Schools,"Elementary,Middle","PO Box 6, Ashley, MI 48806",(989)847-2514,43.186696,-84.47443469999999
262540000932,Aspen Ridge Elementary School,Public,2625400,NICE Community School District,Middle,"350 ASPEN RIDGE SCHOOL RD, ISHPEMING, MI 49849",(906)485-3175,46.479403,-87.73154
263426006976,Athens High School,Public,2634260,Troy School District,High,"4333 John R Road, Troy, MI 48085",(248)823-2900,42.581852,-83.11115099999999
260351004048,Athens JuniorSenor High School,Public,2603510,Athens Area Schools,"Middle,High","300 EAST HOLCOMB ST, ATHENS, MI 49011",(269)729-5414,42.0856227,-85.2316707
260354004052,Atherton Elementary School,Public,2603540,Atherton Community Schools,Elementary,"3444 SOUTH GENESEE RD, BURTON, MI 48519",(810)591-0604,42.9783027,-83.6174293
260354004051,Atherton Jr  Sr High School,Public,2603540,Atherton Community Schools,"Middle,High","3354 SOUTH GENESEE RD, BURTON, MI 48519",(810)591-9184,42.9798789,-83.6151802
260354004053,Atherton Vern Van Y Educational Center,Public,2603540,Atherton Community Schools,High,"2400 CLARICE AVE, BURTON, MI 48519",(810)591-0850,42.9929267,-83.6363921
260357004057,Atlanta Community Schools,Public,2603570,Atlanta Community Schools,High,"10500 COUNTY ROAD 489, ATLANTA, MI 49709",(989)785-4842,44.99467,-84.148984
262115008348,Attwood School,Public,2621150,Lansing Public School District,"Elementary,Middle","915 ATTWOOD DR, LANSING, MI 48911",(517)755-1210,42.6749613,-84.56524379999999
262187005908,Atwood Elementary School,Public,2621870,L'Anse Creuse Public Schools,Elementary,"45690 NORTH AVE, MACOMB, MI 48042",(586)493-5250,42.6343631,-82.874247
260360004058,Au GresSims Elementary School,Public,2603600,Au Gres-Sims School District,Elementary,"PO Box 648, Au Gres, MI 48703",(989)876-7157,44.0486294,-83.6958161
260360004059,Au GresSims High School,Public,2603600,Au Gres-Sims School District,High,"310 S COURT ST, Au Gres, MI 48703",(989)876-7157,44.0455985,-83.6969104
260360008664,Au GresSims Middle School,Public,2603600,Au Gres-Sims School District,Middle,"310 S COURT ST, Au Gres, MI 48703",(989)876-7157,44.0455985,-83.6969104
260369004062,Auburn Elementary School,Public,2603690,Avondale School District,Elementary,"2900 WAUKEGAN ST, AUBURN HILLS, MI 48326",(248)537-6500,42.6283885,-83.2295297
260426004093,Auburn Elementary School,Public,2604260,Bay City School District,Elementary,"301 EAST MIDLAND RD, AUBURN, MI 48611",(989)662-4921,43.6040916,-84.06563969999999
260366004061,AuTrainOnota Public School,Public,2603660,AuTrain-Onota Public Schools,Middle,"PO Box 105, Deerton, MI 49822",(906)343-6632,46.4740072,-87.0428242
263222000205,Avalon Elementary School,Public,2632220,South Lake Schools,Elementary,"20000 AVALON ST, SAINT CLAIR SHORES, MI 48080",(586)435-1001,42.4583881,-82.91945919999999
263660007272,Avoca Elementary School,Public,2636600,Yale Public Schools,Elementary,"PO Box 365 8751 Willow Street, Avoca, MI 48006",(810)324-2660,43.0590774,-82.6901932
260369008910,Avondale Gifted and Talented Education,Public,2603690,Avondale School District,"Elementary,Middle","1435 W AUBURN RD, ROCHESTER HLS, MI 48309",(248)537-6400,42.6345045,-83.15839849999999
260369004067,Avondale High School,Public,2603690,Avondale School District,High,"2800 WAUKEGAN ST, AUBURN HILLS, MI 48326",(248)537-6100,42.6282443,-83.2338712
260369000231,Avondale Middle School,Public,2603690,Avondale School District,Middle,"1445 WEST AUBURN RD, ROCHESTER HILLS, MI 48309",(248)537-6300,42.6303042,-83.1583675
262946001566,B Beck Education Center,Public,2629460,Redford Union Schools District No. 1,Elementary,"27100 Bennett, Redford, MI 48240",(313)242-3501,42.4189275,-83.3127076
260282004018,Bach Elementary School,Public,2602820,Ann Arbor Public Schools,Elementary,"600 WEST JEFFERSON ST, ANN ARBOR, MI 48103",(734)994-1949,42.2765233,-83.7553229
260001703920,Bad Axe Elementary School,Public,2600017,Bad Axe Public Schools,Elementary,"404 HATCHET DR, BAD AXE, MI 48413",(989)269-2736,43.8052877,-83.01379
260001703918,Bad Axe High School,Public,2600017,Bad Axe Public Schools,"Middle,High","200 NORTH BARRIE RD, BAD AXE, MI 48413",(989)269-9593,43.8078827,-83.0162471
260001703919,Bad Axe Middle School,Public,2600017,Bad Axe Public Schools,Elementary,"750 SOUTH VAN DYKE RD, BAD AXE, MI 48413",(989)269-2735,43.8032399,-83.01409989999999
260110304643,Bagley Elementary School of Journalism and Technology,Public,2601103,Detroit Public Schools Community District,,"8100 CURTIS ST, DETROIT, MI 48221",(313)494-7175,42.4252013,-83.1523131
261839008186,Bailey Early Childhood Center,Public,2618390,Hillsdale Community Schools,Elementary,"59 S Manning Street, Hillsdale, MI 49242",(517)437-4401,41.9172735,-84.6332863
260990004472,Bailey Lake Elementary School,Public,2609900,Clarkston Community School District,Elementary,"8051 PINE KNOB RD, CLARKSTON, MI 48348",(248)623-5300,42.75705790000001,-83.3719428
263426006962,Baker Middle School,Public,2634260,Troy School District,Middle,"1359 TORPEY DR, TROY, MI 48083",(248)823-4600,42.5681398,-83.1207818
262994006567,Baldwin Elementary School,Public,2629940,Rochester Community School District,Elementary,"4325 BANNISTER RD, ROCHESTER, MI 48306",(248)726-3200,42.7369847,-83.1642406
260381004071,Baldwin Elementary School,Public,2603810,Baldwin Community Schools,Elementary,"525 4TH ST, BALDWIN, MI 49304",(231)745-3261,43.8893719,-85.85641079999999
261716005392,Baldwin Heights School,Public,2617160,Greenville Public Schools,Elementary,"821 WEST OAK ST, GREENVILLE, MI 48838",(616)754-3643,43.1750736,-85.2657663
260381004070,Baldwin Junior High School,Public,2603810,Baldwin Community Schools,Middle,"525 4TH ST, BALDWIN, MI 49304",(231)745-4683,43.8893719,-85.85641079999999
260381004068,Baldwin Senior High School,Public,2603810,Baldwin Community Schools,High,"525 4TH ST, BALDWIN, MI 49304",(231)745-4683,43.8893719,-85.85641079999999
261884000700,Baldwin Street Middle School,Public,2618840,Hudsonville Public School District,Middle,"3835 BALDWIN ST, HUDSONVILLE, MI 49426",(616)669-7750,42.91115,-85.877909
262556006203,Ballard Elementary School,Public,2625560,Niles Community Schools,Elementary,"1601 WEST CHICAGO RD, NILES, MI 49120",(269)683-5900,41.8163479,-86.2803907
260387007447,Bangor Career Academy,Public,2603870,Bangor Public Schools (Van Buren),"Elementary,High","801 W ARLINGTON ST, BANGOR, MI 49013",(269)427-6800,42.3080316,-86.121974
260390004075,Bangor Central School,Public,2603900,Bangor Township Schools,Elementary,"208 STATE PARK DR, BAY CITY, MI 48706",(989)684-8891,43.6408982,-83.8951295
260387004072,Bangor High School,Public,2603870,Bangor Public Schools (Van Buren),High,"801 WEST ARLINGTON ST, BANGOR, MI 49013",(269)427-6844,42.3080316,-86.121974
260390004078,Bangor Lincoln School,Public,2603900,Bangor Township Schools,Elementary,"2771 NORTH EUCLID AVE, BAY CITY, MI 48706",(989)686-7639,43.659416,-83.9118486
260387004073,Bangor Middle School,Public,2603870,Bangor Public Schools (Van Buren),"Elementary,Middle","803 WEST ARLINGTON ST, BANGOR, MI 49013",(269)427-6824,42.30893529999999,-86.1210844
260390008729,Bangor Township Virtual School,Public,2603900,Bangor Township Schools,"Elementary,High","4091 N EUCLID AVE, Bay City, MI 48706",(989)684-8121,43.6212007,-83.9130904
260390004080,Bangor West Central School,Public,2603900,Bangor Township Schools,Elementary,"3175 WILDER RD, BAY CITY, MI 48706",(989)684-3373,43.6246764,-83.9250004
260017801047,Barack Obama Leadership Academy,Public,2600178,Barack Obama Leadership Academy,"Elementary,Middle","10800 EAST CANFIELD ST, DETROIT, MI 48214",(313)823-6000,42.3806205,-82.98586829999999
260000107857,Baraga Maximum Correctional Facility,Public,2600001,Michigan Department of Corrections,High,"13924 WADAGA RD, BARAGA, MI 49908",(906)353-7070,46.76477089999999,-88.50821429999999
260399004084,Baraga School,Public,2603990,Baraga Area Schools,"Elementary,High","210 LYONS ST, BARAGA, MI 49908",(906)353-6661,46.7764987,-88.4940037
260101405502,Barber Elementary School,Public,2601014,Highland Park Public School Academy System,Middle,"45 EAST BUENA VISTA ST, HIGHLAND PARK, MI 48203",(313)957-3005,42.4019095,-83.0922452
260480004158,Barhitte Elementary School,Public,2604800,Bentley Community School District,Elementary,"6080 ROBERTA ST, BURTON, MI 48509",(810)591-9647,43.0074542,-83.59180769999999
260402004089,Bark RiverHarris Elementary School,Public,2604020,Bark River-Harris School District,,"PO Box 350, Harris, MI 49845",(906)466-5334,45.7028791,-87.3490853
260402004088,Bark RiverHarris JrSr High School,Public,2604020,Bark River-Harris School District,"Middle,High","PO Box 350, Harris, MI 49845",(906)466-5321,45.7028791,-87.3490853
261755007544,Barkell Elementary School,Public,2617550,Hancock Public Schools,Elementary,"1201 NORTH ELEVATION ST, HANCOCK, MI 49930",(906)487-9030,47.13769850000001,-88.5923179
263426006979,Barnard Elementary School,Public,2634260,Troy School District,Elementary,"3601 Forge Drive, Troy, MI 48083",(248)823-4300,42.5730446,-83.10534609999999
268014001323,Barry ISD Special Education,Public,2680140,Barry ISD,High,"555 WEST WOODLAWN AVE, HASTINGS, MI 49058",(269)945-9545,42.6613913,-85.29525009999999
260956004451,Barryton Elementary School,Public,2609560,Chippewa Hills School District,Elementary,"19701 30TH AVE, Barryton, MI 49305",(989)382-5311,43.7518404,-85.1483413
263012006611,Barth Elementary School,Public,2630120,Romulus Community Schools,Elementary,"38207 BARTH ST, ROMULUS, MI 48174",(734)532-1250,42.1895003,-83.412268
260110308930,Barton Elementary School,Public,2601103,Detroit Public Schools Community District,,"8530 JOY RD, DETROIT, MI 48204",(313)873-7441,42.3595428,-83.1540603
263230000022,Baseline Middle School,Public,2632300,South Haven Public Schools,Middle,"7357 BASELINE RD, SOUTH HAVEN, MI 49090",(269)637-0530,42.4212628,-86.2600476
261203008866,Bates,Public,2612030,Dexter Community School District,High,"2704 BAKER RD, DEXTER, MI 48130",(734)424-4100,42.3291686,-83.8860266
260110307481,Bates Academy,Public,2601103,Detroit Public Schools Community District,Middle,"19701 WYOMING ST, DETROIT, MI 48221",(313)494-7000,42.43755549999999,-83.16255509999999
263648507239,Bates Elementary School,Public,2636485,Woodhaven-Brownstown School District,Elementary,"22811 GUDITH RD, WOODHAVEN, MI 48183",(734)692-2217,42.1408589,-83.2503507
260417004091,Bath Elementary School,Public,2604170,Bath Community Schools,Elementary,"PO Box 310, Bath, MI 48808",(517)641-6771,42.8273575,-84.4592701
260417004090,Bath High School,Public,2604170,Bath Community Schools,High,"6175 E Clark Road, Bath, MI 48808",(517)641-6724,42.8131132,-84.4837173
260417004092,Bath Middle School,Public,2604170,Bath Community Schools,Middle,"13675 WEBSTER RD, Bath, MI 48808",(517)641-6781,42.8177805,-84.4466394
260027501616,Battle Creek Area Learning Center,Public,2600275,Battle Creek Area Learning Center,High,"765 UPTON AVE, SPRINGFIELD, MI 49037",(269)565-2460,42.3218254,-85.2266937
260000503830,Battle Creek Central High School,Public,2600005,Battle Creek Public Schools,High,"100 VAN BUREN ST W, BATTLE CREEK, MI 49017",(269)213-3500,42.3193382,-85.1761332
260000500477,Battle Creek MathSci Center,Public,2600005,Battle Creek Public Schools,"Middle,High","171 Michigan Ave W, Battle Creek, MI 49017",(269)965-9440,42.3229038,-85.1877852
260105508473,Battle Creek Montessori Academy,Public,2601055,Battle Creek Montessori Academy,Middle,"399 20TH ST N, SPRINGFIELD, MI 49037",(269)339-3308,42.3205755,-85.22035869999999
260000508921,Battle Creek STEM Innovation Center,Public,2600005,Battle Creek Public Schools,Middle,"100 VAN BUREN ST W, BATTLE CREEK, MI 49017",(269)213-3513,42.3193382,-85.1761332
261884005560,Bauer Elementary School,Public,2618840,Hudsonville Public School District,Elementary,"8136 48TH AVE, HUDSONVILLE, MI 49426",(616)669-6824,42.916087,-85.90158770000001
261983005639,Bauerwood School,Public,2619830,Jenison Public Schools,Elementary,"1443 BAUER RD, JENISON, MI 49428",(616)457-1408,42.9222095,-85.8163689
260100008333,Bay City Academy  Farragut Campus,Public,2601000,Bay City Academy,High,"809 SAGINAW ST, BAY CITY, MI 48708",(989)414-8254,43.5986212,-83.8891738
260426002049,Bay City Adult EducationCTP,Public,2604260,Bay City School District,High,"4155 MONITOR RD, BAY CITY, MI 48706",(989)686-4770,43.6187662,-83.941591
260426004094,Bay City Central High School,Public,2604260,Bay City School District,High,"1624 COLUMBUS AVE, BAY CITY, MI 48708",(989)893-9541,43.5885462,-83.8743044
260426000800,Bay City Eastern High School,Public,2604260,Bay City School District,High,"201 WOODSIDE LN, BAY CITY, MI 48708",(989)895-5550,43.6059243,-83.8652795
260426004113,Bay City Western High School,Public,2604260,Bay City School District,High,"500 WEST MIDLAND RD, AUBURN, MI 48611",(989)662-4481,43.6049505,-84.0782016
260000407876,Bay Pines Center,Public,2600004,Michigan Department of Human Services,"Middle,High","2425 NORTH 30TH ST, ESCANABA, MI 49829",(517)335-3541,45.769465,-87.0910529
260006700463,BayArenac Community High School,Public,2600067,Bay-Arenac Community High School,High,"805 LANGSTAFF ST, ESSEXVILLE, MI 48732",(989)893-8811,43.6124841,-83.83897189999999
260852008092,Beach Elementary School,Public,2608520,Cedar Springs Public Schools,Elementary,"204 EAST MUSKEGON ST, CEDAR SPRINGS, MI 49319",(616)696-0350,43.2176686,-85.53838809999999
261539007455,Beach Elementary School,Public,2615390,Fruitport Community Schools,Elementary,"2741 HEIGHTS RAVENNA RD, MUSKEGON, MI 49444",(231)773-8996,43.1890368,-86.1759879
260894004438,Beach Middle School,Public,2608940,Chelsea School District,Middle,"445 MAYER DR, CHELSEA, MI 48118",(734)433-2202,42.3182386,-84.0096366
262160001188,Beacon Day Treatment Center,Public,2621600,Lincoln Park School District of the City of,"Elementary,High","12601 MCCANN ST, SOUTHGATE, MI 48195",(313)551-2790,42.2182243,-83.2093592
261776005440,Beacon Elementary School,Public,2617760,Harper Woods The School District of the City of,Elementary,"19475 BEACONSFIELD ST, HARPER WOODS, MI 48225",(313)245-5343,42.4361333,-82.9377195
263447001840,Beacon Tree Elementary School,Public,2634470,Utica Community Schools,,"55885 SCHOENHERR RD, SHELBY TOWNSHIP, MI 48315",(586)797-7300,42.7034032,-82.99793609999999
261773005435,Beadle Lake Elementary School,Public,2617730,Harper Creek Community Schools,Elementary,"8175 C DR N, BATTLE CREEK, MI 49014",(269)441-3295,42.2728857,-85.13643750000001
260429004117,Beal City Elementary School,Public,2604290,Beal City Public Schools,Elementary,"3180 WEST BEAL CITY RD, MT PLEASANT, MI 48858",(989)644-2740,43.6702085,-84.9122046
260429007510,Beal City High School,Public,2604290,Beal City Public Schools,"Middle,High","3180 WEST BEAL CITY RD, MOUNT PLEASANT, MI 48858",(989)644-3944,43.6702085,-84.9122046
263594007197,Bean Elementary School,Public,2635940,Western School District,Elementary,"3201 NOBLE RD, SPRING ARBOR, MI 49283",(517)841-8470,42.215515,-84.5299449
260432004120,Bear Lake Elementary School,Public,2604320,Bear Lake Schools,,"7748 CODY ST, BEAR LAKE, MI 49614",(231)864-3133,44.4192692,-86.14677739999999
260432004118,Bear Lake High School,Public,2604320,Bear Lake Schools,"Middle,High","7748 CODY ST, BEAR LAKE, MI 49614",(231)864-3133,44.4192692,-86.14677739999999
263531007146,Beaumont Elementary School,Public,2635310,Waterford School District,Elementary,"6532 ELIZABETH LAKE RD, WATERFORD, MI 48327",(248)682-6822,42.6455414,-83.41597019999999
260435004123,Beaver Island Community School,Public,2604350,Beaver Island Community School,High,"37895 KINGS HWY, BEAVER ISLAND, MI 49782",(231)448-2744,45.7455942,-85.52306399999999
260444004126,Beaverton Elementary School,Public,2604440,Beaverton Schools,,"PO Box 529, Beaverton, MI 48612",(989)246-3020,43.8822464,-84.48473159999999
260444004125,Beaverton JuniorSenior High School,Public,2604440,Beaverton Schools,"Middle,High","PO Box 529, Beaverton, MI 48612",(989)246-3010,43.8822464,-84.48473159999999
263447000927,Beck Centennial Elem School,Public,2634470,Utica Community Schools,,"54600 HAYES RD, MACOMB, MI 48042",(586)797-3900,42.698108,-82.9742
260447004132,Bedford Junior High School,Public,2604470,Bedford Public Schools,Middle,"8405 JACKMAN RD, TEMPERANCE, MI 48182",(734)850-6200,41.7687906,-83.5887618
261161004615,Bedford School,Public,2611610,Dearborn Heights School District #7,Elementary,"4650 CROISSANT ST, DEARBORN HEIGHTS, MI 48125",(313)203-4100,42.2762517,-83.2245804
260447004128,Bedford Senior High School,Public,2604470,Bedford Public Schools,High,"8285 Jackman Rd, Temperance, MI 48182",(734)850-6100,41.7660444,-83.58886629999999
262946008208,Beech Elementary,Public,2629460,Redford Union Schools District No. 1,,"19990 Beech Daly Rd, Redford, MI 48240",(313)242-6100,42.4362177,-83.29682609999999
260450009027,Beecher Alternative Education,Public,2604500,Beecher Community School District,High,"1020 W COLDWATER RD, FLINT, MI 48505",(810)591-9281,43.0913296,-83.6960017
260450004133,Beecher High School,Public,2604500,Beecher Community School District,"Middle,High","1020 W COLDWATER RD, FLINT, MI 48505",(810)591-9281,43.0913296,-83.6960017
262937006515,Beechnau Elementary School,Public,2629370,Ravenna Public Schools,Elementary,"12322 STAFFORD ST, RAVENNA, MI 49451",(231)853-2258,43.1893822,-85.94035319999999
261407005033,Beechview Elementary School,Public,2614070,Farmington Public School District,Elementary,"26850 WESTMEATH CT, FARMINGTON HILLS, MI 48334",(248)489-3655,42.4932831,-83.347546
262115000043,Beekman Center,Public,2621150,Lansing Public School District,High,"2901 WABASH RD, LANSING, MI 48910",(517)755-1170,42.6992418,-84.5084552
263519007107,Beer Middle School,Public,2635190,Warren Consolidated Schools,Middle,"3200 MARTIN RD, WARREN, MI 48092",(586)574-3175,42.4973423,-83.0734877
260453004142,Belding High School,Public,2604530,Belding Area School District,High,"850 HALL ST, BELDING, MI 48809",(616)794-4900,43.0911297,-85.2212515
260453004146,Belding Middle School,Public,2604530,Belding Area School District,Middle,"410 IONIA ST, BELDING, MI 48809",(616)794-4400,43.0948383,-85.2248544
260462004147,Bellaire MiddleHigh School,Public,2604620,Bellaire Public Schools,"Middle,High","204 WEST FORREST HOME AVE, BELLAIRE, MI 49615",(231)533-8015,44.9822254,-85.21292
260000107890,Bellamy Creek Correctional Facility,Public,2600001,Michigan Department of Corrections,High,"1727 WEST BLUEWATER HWY, IONIA, MI 48846",(616)527-2510,42.97980219999999,-85.10576879999999
261242004938,Belle River Elementary School,Public,2612420,East China School District,Elementary,"1601 CHARTIER RD, MARINE CITY, MI 48039",(810)676-1150,42.70749,-82.510519
263456007030,Belleville High School,Public,2634560,Van Buren Public Schools,"Middle,High","501 WEST COLUMBIA AVE, BELLEVILLE, MI 48111",(734)697-9133,42.20306739999999,-83.49309989999999
260465004149,Bellevue Elementary School,Public,2604650,Bellevue Community Schools,,"904 WEST CAPITAL AVE, BELLEVUE, MI 49021",(269)763-9435,42.4445953,-85.0280227
260465004150,Bellevue JrSr High School,Public,2604650,Bellevue Community Schools,"Middle,High","576 LOVE HWY, BELLEVUE, MI 49021",(269)763-9413,42.452772,-85.02560799999999
261245004948,Bellview Elementary School,Public,2612450,Eastpointe Community Schools,Elementary,"15800 BELL AVE, EASTPOINTE, MI 48021",(586)553-3100,42.4767355,-82.958125
263003006584,Belmont Elementary School,Public,2630030,Rockford Public Schools,Elementary,"6097 BELMONT AVE NE, BELMONT, MI 49306",(616)863-6362,43.0740253,-85.6104926
263426006978,Bemis Elementary School,Public,2634260,Troy School District,Elementary,"3571 Northfield Parkway, Troy, MI 48084",(248)823-4100,42.5701986,-83.18143959999999
263447007003,Bemis Junior High School,Public,2634470,Utica Community Schools,Middle,"12500 19 MILE RD, STERLING HEIGHTS, MI 48313",(586)797-2500,42.6089845,-83.0029673
260474004152,Bendle High School,Public,2604740,Bendle Public Schools,High,"2283 EAST SCOTTWOOD AVE, BURTON, MI 48529",(810)591-5103,42.9704598,-83.6600316
260474004156,Bendle Middle School,Public,2604740,Bendle Public Schools,Middle,"2294 EAST BRISTOL RD, BURTON, MI 48529",(810)591-3385,42.974206,-83.66188439999999
260001503882,Benjamin Franklin Middle School,Public,2600015,Wayne-Westland Community School District,Middle,"33555 ANNAPOLIS ST, WAYNE, MI 48184",(734)419-2402,42.2732175,-83.3687242
260110304650,Bennett Elementary School,Public,2601103,Detroit Public Schools Community District,Elementary,"2111 MULLANE ST, DETROIT, MI 48209",(313)849-3585,42.3091993,-83.1296474
262628000541,Bennett Woods Elementary School,Public,2626280,Okemos Public Schools,Elementary,"2650 BENNETT RD, OKEMOS, MI 48864",(517)706-5100,42.6986165,-84.4476595
260252000005,Bennie Elementary School,Public,2602520,Allen Park Public Schools,Elementary,"17401 CHAMPAIGN RD, ALLEN PARK, MI 48101",(313)827-1300,42.2487508,-83.2239656
261740005419,Bentheim Elementary School,Public,2617400,Hamilton Community Schools,Elementary,"4057 38TH ST, HAMILTON, MI 49419",(269)751-5335,42.7134025,-85.918296
262856000292,Bentley Elementary School,Public,2628560,Plymouth-Canton Community Schools,Elementary,"1100 SOUTH SHELDON RD, CANTON, MI 48188",(734)397-6360,42.2992322,-83.47869109999999
260480008508,Bentley High School BOLD Academy,Public,2604800,Bentley Community School District,High,"1150 N BELSAY RD, BURTON, MI 48509",(810)591-9046,43.0231013,-83.5917099
260480008465,Bentley Middle School,Public,2604800,Bentley Community School District,Middle,"1180 N BELSAY RD, BURTON, MI 48509",(810)591-9061,43.024468,-83.5920979
260480004160,Bentley Senior High School,Public,2604800,Bentley Community School District,High,"1150 NORTH BELSAY RD, BURTON, MI 48509",(810)591-9046,43.0231013,-83.5917099
260019101099,Benton Harbor Charter School Academy,Public,2600191,Benton Harbor Charter School Academy,High,"455 RIVERVIEW DR, BENTON HARBOR, MI 49022",(269)925-3807,42.1099842,-86.4622316
260483004162,Benton Harbor High School,Public,2604830,Benton Harbor Area Schools,High,"870 COLFAX AVE, BENTON HARBOR, MI 49022",(269)605-1200,42.1023225,-86.45700719999999
260495008155,Benzie Academy,Public,2604950,Benzie County Central Schools,"Middle,High","9300 HOMESTEAD RD, BENZONIA, MI 49616",(231)882-4497,44.61835,-86.0518477
260495000801,Benzie Central Middle School,Public,2604950,Benzie County Central Schools,Middle,"9300 HOMESTEAD RD, BENZONIA, MI 49616",(231)882-4497,44.61835,-86.0518477
260495004182,Benzie Central Sr High School,Public,2604950,Benzie County Central Schools,High,"9300 HOMESTEAD RD, BENZONIA, MI 49616",(231)882-4497,44.61835,-86.0518477
260501004187,Berkley High School,Public,2605010,Berkley School District,"Middle,High","2325 CATALPA DR, BERKLEY, MI 48072",(248)837-8100,42.4954072,-83.1803414
260585004213,Berkshire Middle School,Public,2605850,Birmingham Public Schools,Middle,"21707 WEST 14 MILE RD, BEVERLY HILLS, MI 48025",(248)203-4703,42.52955,-83.26005099999999
263354006908,Bernice McDowell Elem School,Public,2633540,Taylor School District,Elementary,"22929 BREST, TAYLOR, MI 48180",(734)374-1240,42.2190839,-83.2572148
268016000464,Berrien County Juvenile Center,Public,2680160,Berrien RESA,"Middle,High","379 WEST GLENLORD RD, SAINT JOSEPH, MI 49085",(269)471-7725,42.0443453,-86.4622373
260543001563,Berrien Springs Discovery Academy,Public,2605430,Berrien Springs Public Schools,High,"242 SYLVESTER AVE, BERRIEN SPRGS, MI 49103",(269)471-2593,41.94571089999999,-86.345173
260543004199,Berrien Springs High School,Public,2605430,Berrien Springs Public Schools,High,"PO Box 130, BERRIEN SPRINGS, MI 49103",(269)471-1748,41.9638277,-86.3558139
260543004198,Berrien Springs Middle School,Public,2605430,Berrien Springs Public Schools,Middle,"PO Box 130, BERRIEN SPRINGS, MI 49103",(269)471-2796,41.9638277,-86.3558139
260543008175,Berrien Springs Virtual Academy,Public,2605430,Berrien Springs Public Schools,"Elementary,High","PO Box 130, Berrien Springs, MI 49103",(269)473-0500,41.9638277,-86.3558139
268098500729,Bert Goens Learning Center,Public,2680985,Van Buren ISD,High,"490 SOUTH PAW PAW ST, LAWRENCE, MI 49064",(269)539-5032,42.2148203,-86.0521097
261233004932,Bertha Neal School,Public,2612330,Durand Area Schools,Elementary,"930 WEST MAIN ST, DURAND, MI 48429",(989)288-2016,42.91247,-83.998648
260273007409,Besser Elementary School,Public,2602730,Alpena Public Schools,Elementary,"375 WILSON ST, ALPENA, MI 49707",(989)358-5100,45.0846484,-83.4526996
263555007165,Bessie B Baker School,Public,2635550,Wayland Union Schools,Elementary,"507 WEST SYCAMORE ST, WAYLAND, MI 49348",(269)792-9208,42.6707618,-85.648866
261644000878,Bethany Based School,Public,2616440,Grand Rapids Public Schools,"Elementary,High","901 EASTERN AVE NE, GRAND RAPIDS, MI 49503",(616)245-7708,42.9805837,-85.65067220000002
262874008163,Bethune Adult Education,Public,2628740,Pontiac City School District,High,"1051 Arlene Ave, Pontiac, MI 48340",(248)451-7970,42.6674987,-83.26931499999999
260495007449,Betsie Valley School,Public,2604950,Benzie County Central Schools,Elementary,"17936 CADILLAC HWY, THOMPSONVILLE, MI 49683",(231)378-4164,44.49335,-85.9400896
260585004214,Beverly Elementary School,Public,2605850,Birmingham Public Schools,Elementary,"18305 BEVERLY RD, BEVERLY HILLS, MI 48025",(248)203-3164,42.5225553,-83.22746459999999
260569004202,Big Bay De Noc School,Public,2605690,Big Bay De Noc School District,High,"8928 OO 25 RD, COOKS, MI 49817",(906)252-4500,45.8713621,-86.52592519999999
261023004513,Big Burning School,Public,2610230,Colfax Township S/D #1F,"Elementary,Middle","1509 NORTH VAN DYKE RD, BAD AXE, MI 48413",(989)269-8853,43.838391,-83.0018956
260010500661,Big Jackson Public School,Public,2600105,Big Jackson School District,Elementary,"4020 13 MILE RD, PARIS, MI 49338",(231)796-8947,43.7424111,-85.7010178
260578004205,Big Rapids High School,Public,2605780,Big Rapids Public Schools,High,"21175 15 MILE RD, BIG RAPIDS, MI 49307",(231)796-7651,43.6817872,-85.5073555
260578004204,Big Rapids Middle School,Public,2605780,Big Rapids Public Schools,"Elementary,Middle","500 NORTH WARREN AVE, BIG RAPIDS, MI 49307",(231)796-9965,43.7041926,-85.4802283
260578000643,Big Rapids Virtual School,Public,2605780,Big Rapids Public Schools,"Elementary,High","14980 215TH AVE, BIG RAPIDS, MI 49307",(231)796-3489,43.6848904,-85.5136261
260915004445,Big Rock Elementary School,Public,2609150,Chesaning Union Schools,Elementary,"920 EAST BROAD ST, CHESANING, MI 48616",(989)845-2430,43.1826245,-84.10252369999999
260585004227,Bingham Farms Elementary School,Public,2605850,Birmingham Public Schools,Elementary,"23400 WEST 13 MILE RD, BINGHAM FARMS, MI 48025",(248)203-3350,42.5167624,-83.274849
260582004210,Birch Run High School,Public,2605820,Birch Run Area Schools,High,"12450 CHURCH ST, BIRCH RUN, MI 48415",(989)624-9392,43.2436711,-83.7964101
260582007768,Birch Run Progressive High School,Public,2605820,Birch Run Area Schools,High,"12450 CHURCH ST, BIRCH RUN, MI 48415",(989)624-9392,43.2436711,-83.7964101
261953005616,Birchview School,Public,2619530,Ishpeming Public School District No. 1,Elementary,"663 POPLAR ST, ISHPEMING, MI 49849",(906)485-6341,46.5105723,-87.66224749999999
262856006406,Bird Elementary School,Public,2628560,Plymouth-Canton Community Schools,Elementary,"220 NORTH SHELDON RD, PLYMOUTH, MI 48170",(734)416-3100,42.3723113,-83.481358
260585004215,Birmingham Covington School,Public,2605850,Birmingham Public Schools,"Elementary,Middle","1525 COVINGTON RD, BLOOMFIELD HILLS, MI 48301",(248)203-4425,42.5582545,-83.2475061
262157001000,Bishop Elementary School,Public,2621570,Lincoln Consolidated School District,Elementary,"8888 WHITTAKER RD, YPSILANTI, MI 48197",(734)484-7074,42.1595275,-83.60337849999999
263519007095,Black Elementary School,Public,2635190,Warren Consolidated Schools,Elementary,"14100 HERITAGE RD, STERLING HEIGHTS, MI 48312",(586)825-2840,42.543057,-82.9830303
260011408728,Black River Public School Elementary,Public,2600114,Black River Public School,Elementary,"513 Columbia Avenue, Holland, MI 49423",(616)355-0055,42.7783474,-86.0999839
260011400705,Black River Public School MiddleHigh,Public,2600114,Black River Public School,"Middle,High","491 COLUMBIA AVE, HOLLAND, MI 49423",(616)355-0055,42.7789831,-86.09990520000001
261770000087,Blackbird Elementary School,Public,2617700,Harbor Springs School District,Elementary,"421 EAST LAKE ST, HARBOR SPRINGS, MI 49740",(231)526-4600,45.4366354,-84.98514689999999
260110301298,Blackwell Institute,Public,2601103,Detroit Public Schools Community District,"Elementary,Middle","9330 SHOEMAKER ST, DETROIT, MI 48213",(313)866-4391,42.3891858,-83.0053767
263387007654,Blair Elementary School,Public,2633870,Traverse City Area Public Schools,Elementary,"1625 SAWYER RD, TRAVERSE CITY, MI 49685",(231)933-5700,44.6627378,-85.6750268
263354006889,Blair Moody Elementary School,Public,2633540,Taylor School District,Elementary,"8280 HIPP ST, TAYLOR, MI 48180",(313)295-5807,42.2474446,-83.23816509999999
262073005735,Blanche Sims Elementary School,Public,2620730,Lake Orion Community Schools,Elementary,"465 EAST JACKSON ST, LAKE ORION, MI 48362",(248)693-5460,42.7872495,-83.23351009999999
261644000892,Blandford School,Public,2616440,Grand Rapids Public Schools,Middle,"3143 MILO ST NW, GRAND RAPIDS, MI 49534",(616)819-2555,42.9952412,-85.7444987
260107208593,Blended Learning Academies Credit Recovery High School,Public,2601072,Blended Learning Academies Credit Recovery High School,High,"1754 E CLARK RD, LANSING, MI 48906",(517)574-4667,42.8129748,-84.5276767
260107209013,Blended Learning Academies Credit Recovery High School  Liv,Public,2601072,Blended Learning Academies Credit Recovery High School,High,"30218 PLYMOUTH RD, LIVONIA, MI 48150",(248)425-5868,42.3698196,-83.34159729999999
262355001775,Blesch Intermediate School,Public,2623550,Menominee Area Public Schools,Elementary,"1200 11TH AVE, MENOMINEE, MI 49858",(906)863-4466,45.1099138,-87.61750180000001
260600004230,Blissfield Elementary,Public,2606000,Blissfield Community Schools,Elementary,"640 SOUTH LANE ST, BLISSFIELD, MI 49228",(517)486-2811,41.8206549,-83.8669505
260600004229,Blissfield High School,Public,2606000,Blissfield Community Schools,High,"630 SOUTH LANE ST, BLISSFIELD, MI 49228",(517)486-2148,41.8228371,-83.8667298
260600004231,Blissfield Middle School,Public,2606000,Blissfield Community Schools,Middle,"1305 BEAMER RD, BLISSFIELD, MI 49228",(517)486-4420,41.82142930000001,-83.8708522
260609008480,Bloomfield Hills High School,Public,2606090,Bloomfield Hills Schools,High,"4200 ANDOVER RD, BLOOMFIELD TOWNSHIP, MI 48302",(248)341-5600,42.588471,-83.271063
260627004248,Bloomingdale Elementary School,Public,2606270,Bloomingdale Public School District,Elementary,"PO Box 217, Bloomingdale, MI 49026",(269)521-3935,42.3815071,-85.95089229999999
260627004247,Bloomingdale Middle and High School,Public,2606270,Bloomingdale Public School District,"Middle,High","PO Box 217, Bloomingdale, MI 49026",(269)521-3910,42.3815071,-85.95089229999999
268016000466,Blossomland Learning Center,Public,2680160,Berrien RESA,High,"711 SAINT JOSEPH AVE, BERRIEN SPRINGS, MI 49103",(269)473-2600,41.9514803,-86.3487688
261740005417,Blue Star Elementary School,Public,2617400,Hamilton Community Schools,Elementary,"3846 58TH ST, HOLLAND, MI 49423",(269)751-5630,42.7010601,-86.11478129999999
260099208258,Blue Water Middle College Academy,Public,2600992,Blue Water Middle College,High,"323 Erie Street, Port Huron, MI 48061",(810)989-5800,42.9781932,-82.42792949999999
260630004251,Bois Blanc Pines School,Public,2606300,Bois Blanc Pines School District,"Elementary,Middle","PO Box 876, Pointe Aux Pins, MI 49775",(231)634-7225,45.731352,-84.4551194
261910005591,Borland Elementary School,Public,2619100,Imlay City Community Schools,Elementary,"500 WEST BORLAND RD, IMLAY CITY, MI 48444",(810)724-9813,43.0143848,-83.08448659999999
260001303875,Bothwell Middle School,Public,2600013,Marquette Area Public Schools,"Elementary,Middle","1200 TIERNEY ST, MARQUETTE, MI 49855",(906)225-4262,46.534538,-87.4117405
260984004467,Botsford Elementary School,Public,2609840,Clarenceville School District,Elementary,"19515 LATHERS ST, LIVONIA, MI 48152",(248)919-0402,42.43185039999999,-83.32575159999999
263426006975,Boulan Park Middle School,Public,2634260,Troy School District,Middle,"3570 Northfield Parkway, Troy, MI 48084",(248)823-4900,42.571369,-83.17542069999999
260110304851,Bow ElementaryMiddle School,Public,2601103,Detroit Public Schools Community District,Middle,"19801 PREVOST ST, DETROIT, MI 48235",(313)852-0500,42.4368783,-83.20487150000001
262034005713,Bowen Elementary,Public,2620340,Kentwood Public Schools,Elementary,"4483 KALAMAZOO AVE SE, GRAND RAPIDS, MI 49508",(616)455-5220,42.8824228,-85.62785339999999
263390006957,Boyd W Arthurs Middle School,Public,2633900,Trenton Public Schools,Middle,"4000 MARIAN DR, TRENTON, MI 48183",(734)676-8700,42.1338441,-83.21737329999999
260650004253,Boyne City Elementary School,Public,2606500,Boyne City Public Schools,Elementary,"930 BROCKWAY ST, BOYNE CITY, MI 49712",(231)439-8300,45.2076734,-84.9968569
260650004252,Boyne City High School,Public,2606500,Boyne City Public Schools,"Middle,High","1035 BOYNE AVE, BOYNE CITY, MI 49712",(231)439-8100,45.2069204,-84.9983835
260650004254,Boyne City Middle School,Public,2606500,Boyne City Public Schools,"Elementary,Middle","1025 BOYNE AVE, BOYNE CITY, MI 49712",(231)439-8200,45.2076105,-85.0005522
260651004255,Boyne Falls Public School,Public,2606510,Boyne Falls Public School District,High,"PO Box 356, Boyne Falls, MI 49713",(231)549-2211,45.168065,-84.9161574
261995008878,Boys To Men Group Home,Public,2619950,Kalamazoo Public Schools,"Middle,High","6025 LITCHFIELD LN, KALAMAZOO, MI 49009",(269)254-8444,42.3039981,-85.6680377
268072000621,Bozymowski Center,Public,2680720,Macomb ISD,High,"11870 ELDORADO DR, STERLING HEIGHTS, MI 48312",(586)939-5391,42.555473,-83.00550299999999
260028401644,Bradford Academy,Public,2600284,Bradford Academy,High,"24218 GARNER ST, SOUTHFIELD, MI 48033",(248)351-0000,42.4636054,-83.28374240000001
268018000473,Branch Area Careers Center,Public,2680180,Branch ISD,High,"366 MORSE ST, COLDWATER, MI 49036",(517)279-5722,41.950305,-84.9937938
260104208555,Branch Line School,Public,2601042,Branch Line School,Middle,"16360 HUBBARD ST, LIVONIA, MI 48154",(734)335-0663,42.40720899999999,-83.364082
260657008741,Brandon Adult Transition Program,Public,2606570,Brandon School District in the Counties of Oakland and Lapee,,"1025 S Ortonville Road, Ortonville, MI 48462",(248)627-1855,42.8383182,-83.4413265
260657004257,Brandon High School,Public,2606570,Brandon School District in the Counties of Oakland and Lapee,"Middle,High","1025 SOUTH ORTONVILLE RD, ORTONVILLE, MI 48462",(248)627-1820,42.8383182,-83.4413265
260657004259,Brandon Middle School,Public,2606570,Brandon School District in the Counties of Oakland and Lapee,Middle,"609 SOUTH ORTONVILLE RD, ORTONVILLE, MI 48462",(248)627-1830,42.8415445,-83.4456797
260660004261,Brandywine Elementary School,Public,2606600,Brandywine Community Schools,Elementary,"2428 SOUTH 13TH ST, NILES, MI 49120",(269)684-8574,41.7816356,-86.24585239999999
260660000469,Brandywine Innovation Academy,Public,2606600,Brandywine Community Schools,"Middle,High","1830 S 3RD ST, NILES, MI 49120",(269)683-8805,41.7995421,-86.2563134
260660001329,Brandywine Middle School,Public,2606600,Brandywine Community Schools,Middle,"1700 BELL RD, NILES, MI 49120",(269)683-4800,41.7972763,-86.23544170000001
260660004262,Brandywine Senior High School,Public,2606600,Brandywine Community Schools,High,"1700 BELL RD, NILES, MI 49120",(269)683-4800,41.7972763,-86.23544170000001
260663004264,Breckenridge Elementary School,Public,2606630,Breckenridge Community Schools,Elementary,"PO Box 217, Breckenridge, MI 48615",(989)842-3182,43.4080849,-84.4749978
260663004263,Breckenridge High School,Public,2606630,Breckenridge Community Schools,"Middle,High","PO Box 217, Breckenridge, MI 48615",(989)842-3182,43.4080849,-84.4749978
260110300086,Breithaupt Career and Technical Center,Public,2601103,Detroit Public Schools Community District,High,"9300 HUBBELL ST, DETROIT, MI 48228",(313)866-9550,42.3322149,-83.2591655
261293009030,Brenda Hague Early Learning Village,Public,2612930,Ecorse Public Schools,Elementary,"50 W JOSEPHINE ST, ECORSE, MI 48229",(313)294-4750,42.2515136,-83.1429916
260110301676,Brenda Scott Academy for Theatre Arts,Public,2601103,Detroit Public Schools Community District,Middle,"18440 HOOVER ST, DETROIT, MI 48205",(313)866-6700,42.4294516,-83.00335059999999
261635001859,Brendel Elementary School,Public,2616350,Grand Blanc Community Schools,Elementary,"223 Bush St, Grand Blanc, MI 48439",(810)591-6106,42.9225532,-83.6296672
262001005681,Brethren High School,Public,2620010,Kaleva Norman Dickson School District,High,"4400 NORTH HIGH BRIDGE RD, BRETHREN, MI 49619",(231)477-5353,44.303235,-86.0225071
262001001147,Brethren Middle School,Public,2620010,Kaleva Norman Dickson School District,Middle,"4400 NORTH HIGH BRIDGE RD, BRETHREN, MI 49619",(231)477-5353,44.303235,-86.0225071
261248004959,Breton Downs School,Public,2612480,East Grand Rapids Public Schools,Elementary,"2500 BOSTON ST SE, GRAND RAPIDS, MI 49506",(616)235-7552,42.9336442,-85.6078319
260110308081,Brewer Academy,Public,2601103,Detroit Public Schools Community District,Middle,"18025 BROCK ST, DETROIT, MI 48205",(313)866-0404,42.4286847,-82.9636934
262994006569,Brewster Elementary School,Public,2629940,Rochester Community School District,Elementary,"1535 BREWSTER RD, ROCHESTER HILLS, MI 48306",(248)726-3300,42.7032081,-83.18513240000001
263522007122,Briarwood Elementary School,Public,2635220,Warren Woods Public Schools,Elementary,"14100 LEISURE DR, WARREN, MI 48088",(586)439-4404,42.5033621,-82.9802375
262157005854,Brick Elementary School,Public,2621570,Lincoln Consolidated School District,Elementary,"8970 WHITTAKER RD, YPSILANTI, MI 48197",(734)484-7031,42.1580295,-83.6021835
260030608968,Bridge Academy,Public,2600306,Bridge Academy,High,"3120 CARPENTER ST, HAMTRAMCK, MI 48212",(313)462-6100,42.40666969999999,-83.0616659
260030601706,Bridge Academy East,Public,2600306,Bridge Academy,Elementary,"9600 BUFFALO ST, HAMTRAMCK, MI 48212",(313)462-6100,42.3997356,-83.0461224
260113609001,Bridge Academy of Southwest Michigan,Public,2601136,Bridge Academy of Southwest Michigan,High,"499 WEST MAIN ST, BENTON HARBOR, MI 49022",(269)927-1064,42.1140217,-86.4651358
260030608288,Bridge Academy West,Public,2600306,Bridge Academy,Middle,"3105 Carpenter Road, Detroit, MI 48212",(313)462-6200,42.4074544,-83.06189409999999
260687007925,Bridge Alternative High School,Public,2606870,Brighton Area Schools,High,"125 SOUTH CHURCH ST, BRIGHTON, MI 48116",(810)299-4046,42.5288675,-83.77570870000001
260678004274,Bridgeport High School,Public,2606780,Bridgeport-Spaulding Community School District,High,"4691 BEARCAT BLVD, Bridgeport, MI 48722",(989)777-3100,43.3553947,-83.8690869
260678004279,BridgeportSpaulding Middle SchoolSchrah,Public,2606780,Bridgeport-Spaulding Community School District,Middle,"3675 SOUTHFIELD DR, SAGINAW, MI 48601",(989)777-1600,43.3704671,-83.9070842
260684004280,Bridgman Elementary School,Public,2606840,Bridgman Public Schools,Elementary,"3891 LAKE ST, BRIDGMAN, MI 49106",(269)466-0241,41.9444362,-86.54746039999999
260684004281,Bridgman High School,Public,2606840,Bridgman Public Schools,High,"9964 GAST RD, BRIDGMAN, MI 49106",(269)466-0223,41.9390598,-86.5451339
260687004283,Brighton High School,Public,2606870,Brighton Area Schools,High,"7878 BRIGHTON RD, BRIGHTON, MI 48116",(810)299-4100,42.5257393,-83.7935917
260690004291,Brimley Area School,Public,2606900,Brimley Area Schools,High,"7134 SOUTH M 221, BRIMLEY, MI 49715",(906)248-3218,46.3751978,-84.57225559999999
260693008128,Britton Deerfield SchoolDeerfield Building,Public,2606930,Britton Deerfield Schools,Middle,"252 Deerfield Road, Deerfield, MI 49238",(517)447-3215,41.8893004,-83.7834929
260693008119,Britton Deerfield SchoolsBritton Building,Public,2606930,Britton Deerfield Schools,"Elementary,High","201 College Avenue, Britton, MI 49229",(517)451-4581,41.98572069999999,-83.8325181
260696004294,Bronson JrSr High School,Public,2606960,Bronson Community School District,"Middle,High","450 EAST GRANT ST, BRONSON, MI 49028",(517)369-3355,41.8671206,-85.18659099999999
262994006568,Brooklands Elementary School,Public,2629940,Rochester Community School District,Elementary,"490 EAST AUBURN RD, ROCHESTER HILLS, MI 48307",(248)726-3400,42.6350431,-83.121591
260000107929,Brooks Correctional Facility,Public,2600001,Michigan Department of Corrections,High,"2500 SOUTH SHERIDAN DR, MUSKEGON, MI 49444",(231)773-9200,43.208912,-86.1720764
261644005303,Brookside Elementary,Public,2616440,Grand Rapids Public Schools,Elementary,"2505 MADISON AVE SE, GRAND RAPIDS, MI 49507",(616)819-2242,42.918425,-85.65841259999999
260578004206,Brookside Elementary School,Public,2605780,Big Rapids Public Schools,Elementary,"210 ESCOTT ST, BIG RAPIDS, MI 49307",(231)796-8323,43.6958328,-85.4917135
268022000479,Brookside Learning Center,Public,2680220,Heritage Southwest Intermediate School District,High,"61662 DAILEY RD, CASSOPOLIS, MI 49031",(269)445-6260,41.9027575,-86.0885847
262034005714,Brookwood Elementary,Public,2620340,Kentwood Public Schools,Elementary,"5465 KALAMAZOO AVE SE, GRAND RAPIDS, MI 49508",(616)455-0030,42.8644091,-85.62720329999999
260704004303,Brown City Elementary School,Public,2607040,Brown City Community Schools,,"4290 Second St PO Box 160, Brown City, MI 48416",(810)346-4700,43.2122486,-82.9896604
260704004301,Brown City High School,Public,2607040,Brown City Community Schools,"Middle,High","4400 Second St PO Box 160, Brown City, MI 48416",(810)346-4700,43.2122486,-82.9896604
260756004333,Brown Elementary School,Public,2607560,Byron Center Public Schools,Elementary,"8064 BYRON CENTER AVE SW, BYRON CENTER, MI 49315",(616)878-6200,42.81801189999999,-85.721322
261893005568,Brown Elementary School,Public,2618930,Huron School District,Elementary,"25485 MIDDLEBELT RD, NEW BOSTON, MI 48164",(734)782-2716,42.119182,-83.32291099999999
263285006830,Brown School,Public,2632850,St. Joseph Public Schools,Elementary,"2027 Brown School Road, SAINT JOSEPH, MI 49085",(269)926-3500,42.06639029999999,-86.5027341
262574006217,Brownell Middle School,Public,2625740,Grosse Pointe Public Schools,"Elementary,Middle","260 CHALFONTE AVE, GROSSE POINTE FARMS, MI 48236",(313)432-3900,42.4082624,-82.9077944
261452008539,Brownell STEM Academy,Public,2614520,Flint School District of the City of,Elementary,"6302 OXLEY DR, FLINT, MI 48504",(810)760-1643,43.0693806,-83.7278808
263447007002,Browning Elementary School,Public,2634470,Utica Community Schools,,"12400 19 MILE RD, STERLING HEIGHTS, MI 48313",(586)797-4000,42.6088999,-83.00469629999999
263648507715,Brownstown Middle School,Public,2636485,Woodhaven-Brownstown School District,Middle,"20135 INKSTER RD, ROMULUS, MI 48174",(734)783-3400,42.1579738,-83.3012076
263447007014,Bruce Collins Elementary School,Public,2634470,Utica Community Schools,,"12900 GRAND HAVEN DR, STERLING HEIGHTS, MI 48312",(586)797-4200,42.5627354,-82.9968753
261160004585,Bryant Middle School,Public,2611600,Dearborn City School District,Middle,"460 NORTH VERNON ST, DEARBORN, MI 48128",(313)827-2900,42.3151093,-83.2741188
262721006328,Bryant School,Public,2627210,Owosso Public Schools,Elementary,"925 HAMPTON ST, OWOSSO, MI 48867",(989)723-4355,42.98627219999999,-84.183328
261644005304,Buchanan Elementary,Public,2616440,Grand Rapids Public Schools,Elementary,"1775 BUCHANAN AVE SW, GRAND RAPIDS, MI 49507",(616)819-2252,42.93169229999999,-85.6728639
262184005905,Buchanan Elementary School,Public,2621840,Livonia Public Schools School District,Elementary,"16400 HUBBARD ST, LIVONIA, MI 48154",(734)744-2690,42.4072341,-83.3632696
260714004308,Buchanan High School,Public,2607140,Buchanan Community Schools,"Middle,High","401 WEST CHICAGO ST, BUCHANAN, MI 49107",(269)695-8403,41.8243823,-86.36690809999999
260714004312,Buchanan Middle School,Public,2607140,Buchanan Community Schools,"Elementary,Middle","610 WEST 4TH ST, BUCHANAN, MI 49107",(269)695-8406,41.8340889,-86.37443979999999
260714008702,Buchanan Step Up,Public,2607140,Buchanan Community Schools,"Elementary,High","401 West Chicago Street, Buchanan, MI 49107",(269)695-8401,41.8243823,-86.36690809999999
260714008624,Buchanan Virtual Academy,Public,2607140,Buchanan Community Schools,"Elementary,High","401 W CHICAGO ST, BUCHANAN, MI 49107",(269)695-8401,41.8243823,-86.36690809999999
260717004313,Buckley Community Schools,Public,2607170,Buckley Community Schools,High,"305 SOUTH 1ST ST, BUCKLEY, MI 49620",(231)269-3325,44.5024104,-85.6760908
260732004321,Bullock Creek Elementary School,Public,2607320,Bullock Creek School District,Elementary,"1037 SOUTH POSEYVILLE RD, MIDLAND, MI 48640",(989)832-8691,43.58183229999999,-84.24498129999999
260732004320,Bullock Creek High School,Public,2607320,Bullock Creek School District,High,"1420 SOUTH BADOUR RD, MIDLAND, MI 48640",(989)631-2340,43.57020259999999,-84.2908418
260732004325,Bullock Creek Middle School,Public,2607320,Bullock Creek School District,Middle,"644 SOUTH BADOUR RD, MIDLAND, MI 48640",(989)631-9260,43.5929185,-84.2939217
260110304658,Bunche Preparatory Academy,Public,2601103,Detroit Public Schools Community District,Middle,"2715 Macomb Street, DETROIT, MI 48207",(313)494-8350,42.3443072,-83.0238064
262484008365,Bunker Elementary,Public,2624840,Muskegon Public Schools of the City of,Elementary,"2312 Denmark St, Muskegon, MI 49441",(231)720-2300,43.2110446,-86.2954646
261554005219,Burger Development Center,Public,2615540,Garden City Public Schools,"Elementary,High","28865 CARLYSLE ST, INKSTER, MI 48141",(734)729-1830,42.2811272,-83.3266654
260110304660,Burns ElementaryMiddle School,Public,2601103,Detroit Public Schools Community District,Middle,"14350 TERRY ST, DETROIT, MI 48227",(313)852-0534,42.39360970000001,-83.19099109999999
260282004008,Burns Park Elementary School,Public,2602820,Ann Arbor Public Schools,Elementary,"1414 WELLS ST, ANN ARBOR, MI 48104",(734)994-1919,42.2658724,-83.73037269999999
263447006990,Burr Elementary School,Public,2634470,Utica Community Schools,,"41460 RYAN RD, STERLING HEIGHTS, MI 48314",(586)797-4100,42.5966009,-83.06986739999999
260741004326,Burr Oak Elementary School,Public,2607410,Burr Oak Community School District,"Elementary,Middle","PO Box 337, Burr Oak, MI 49030",(269)489-5181,41.8472719,-85.31858989999999
260741004327,Burr Oak High School,Public,2607410,Burr Oak Community School District,High,"PO Box 337, Burr Oak, MI 49030",(269)489-5534,41.8472719,-85.31858989999999
260741008787,Burr Oak Virtual Academy,Public,2607410,Burr Oak Community School District,"Elementary,High","PO Box 337, Burr Oak, MI 49030",(269)489-2213,41.8472719,-85.31858989999999
261983005640,Bursley School,Public,2619830,Jenison Public Schools,Elementary,"1195 PORT SHELDON ST, JENISON, MI 49428",(616)457-2200,42.8889734,-85.8113939
260747004328,Burt Township School,Public,2607470,Burt Township School District,"Elementary,High","PO Box 338, Grand Marais, MI 49839",(906)494-2521,46.671789,-85.9841234
261644005358,Burton Elementary,Public,2616440,Grand Rapids Public Schools,Elementary,"2133 BUCHANAN AVE SW, GRAND RAPIDS, MI 49507",(616)819-2262,42.9254221,-85.67189429999999
260501004188,Burton Elementary School,Public,2605010,Berkley School District,Elementary,"26315 SCOTIA RD, HUNTINGTON WOODS, MI 48070",(248)837-8600,42.4844658,-83.1740232
260025101229,Burton Glen Charter Academy,Public,2600251,Burton Glen Charter Academy,"Elementary,Middle","4171 EAST ATHERTON RD, BURTON, MI 48519",(810)744-2300,42.9928719,-83.62750559999999
260110304663,Burton International Academy,Public,2601103,Detroit Public Schools Community District,Middle,"2001 Martin Luther King Jr Blvd, DETROIT, MI 48208",(313)596-3800,42.3393912,-83.07908019999999
261644000563,Burton Middle School,Public,2616440,Grand Rapids Public Schools,Middle,"2133 BUCHANAN AVE SW, GRAND RAPIDS, MI 49507",(616)819-2269,42.9254221,-85.67189429999999
262205005927,Bushnell Elementary School,Public,2622050,Lowell Area Schools,Elementary,"700 ELIZABETH ST, LOWELL, MI 49331",(616)987-2650,42.9367999,-85.34786
260753004330,Byron Area Elementary School,Public,2607530,Byron Area Schools,Elementary,"401 EAST MAPLE ST, BYRON, MI 48418",(810)266-4671,42.8241612,-83.9408239
260753004329,Byron Area High School,Public,2607530,Byron Area Schools,High,"312 WEST MAPLE ST, BYRON, MI 48418",(810)266-4620,42.8240445,-83.9484155
260753004331,Byron Area Middle School,Public,2607530,Byron Area Schools,Middle,"312 WEST MAPLE ST, BYRON, MI 48418",(810)266-4422,42.8240445,-83.9484155
260009600600,Byron Center Charter School,Public,2600096,Byron Center Charter School,"Elementary,High","9930 BURLINGAME AVE SW, BYRON CENTER, MI 49315",(616)878-4852,42.7837538,-85.7018042
260756004332,Byron Center High School,Public,2607560,Byron Center Public Schools,High,"8500 BURLINGAME AVE SW, BYRON CENTER, MI 49315",(616)878-6600,42.8110393,-85.7013624
260756004334,Byron Center West Middle School,Public,2607560,Byron Center Public Schools,"Middle,High","8654 HOMERICH AVE SW, BYRON CENTER, MI 49315",(616)878-6500,42.807409,-85.752588
260789001811,CA Alternative EdAtlantis,Public,2607890,Carman-Ainsworth Community Schools,"Middle,High","G3493 Beveridge Rd, Flint, MI 48532",(810)591-8220,42.99485,-83.7517583
261644008880,CA Frost Environmental Science Academy Elementary,Public,2616440,Grand Rapids Public Schools,Elementary,"1460 LAUGHLIN DR NW, GRAND RAPIDS, MI 49504",(616)819-2250,42.9914417,-85.7420062
261644001634,CA Frost Environmental Science Academy Middle High School,Public,2616440,Grand Rapids Public Schools,"Middle,High","1417 COVELL AVE NW, GRAND RAPIDS, MI 49504",(616)819-2550,42.9905188,-85.71931950000001
260759007733,Cadillac Innovation High School,Public,2607590,Cadillac Area Public Schools,High,"9600 EAST 13TH ST, CADILLAC, MI 49601",(231)876-5900,44.2643583,-85.3849611
260759004340,Cadillac Senior High School,Public,2607590,Cadillac Area Public Schools,High,"400 LINDEN ST, CADILLAC, MI 49601",(231)876-5800,44.2498592,-85.4160342
260762004347,Caledonia Elementary School,Public,2607620,Caledonia Community Schools,Elementary,"9770 DUNCAN LAKE AVE SE, CALEDONIA, MI 49316",(616)891-8181,42.7875253,-85.5200887
260762004346,Caledonia High School,Public,2607620,Caledonia Community Schools,High,"9050 KRAFT AVE SE, CALEDONIA, MI 49316",(616)891-8129,42.8003005,-85.5245303
268020007819,Calhoun Area Career Center,Public,2680200,Calhoun Intermediate School District,High,"475 ROOSEVELT AVE E, BATTLE CREEK, MI 49017",(269)968-2271,42.3402831,-85.1707167
268020007803,Calhoun County Juvenile Home,Public,2680200,Calhoun Intermediate School District,"Elementary,High","14555 18 12 MILE RD, MARSHALL, MI 49068",(269)789-3507,42.0730415,-85.0603835
260769004352,Calumet High School,Public,2607690,Public Schools of Calumet Laurium & Keweenaw,High,"57070 MINE ST, CALUMET, MI 49913",(906)337-0311,47.2439855,-88.4475605
261554002045,Cambridge Alternative High School,Public,2615540,Garden City Public Schools,High,"28901 CAMBRIDGE ST, GARDEN CITY, MI 48135",(734)762-8430,42.3355278,-83.3276581
260771004355,CamdenFrontier K12 School,Public,2607710,Camden-Frontier School,"Elementary,High","4971 WEST MONTGOMERY RD, CAMDEN, MI 49232",(517)368-5255,41.7810763,-84.7066014
261597001668,Cameron Elementary School,Public,2615970,Gladstone Area Schools,Elementary,"803 29TH ST, GLADSTONE, MI 49837",(906)428-2314,45.856505,-87.0490773
262412006081,Campbell Elementary School,Public,2624120,Mona Shores Public School District,Elementary,"1355 GREENWICH RD, MUSKEGON, MI 49441",(231)755-2550,43.1975972,-86.2768396
261644008521,Campus Elementary,Public,2616440,Grand Rapids Public Schools,Elementary,"710 Benjamin Ave SE, Grand Rapids, MI 49506",(616)819-2535,42.9496069,-85.636263
260101608313,Caniff Liberty Academy,Public,2601016,Caniff Liberty Academy,High,"2650 Caniff Street, Hamtramck, MI 48212",(248)327-7673,42.3985817,-83.0623968
263003006590,Cannonsburg Elementary School,Public,2630030,Rockford Public Schools,Elementary,"4894 STURGIS AVE NE, ROCKFORD, MI 49341",(616)863-6344,43.0519779,-85.46792549999999
260026301273,Canton Charter Academy,Public,2600263,Canton Charter Academy,"Elementary,Middle","49100 FORD RD, CANTON, MI 48187",(734)453-9517,42.3226049,-83.5238259
262856006421,Canton High School,Public,2628560,Plymouth-Canton Community Schools,"Middle,High","8415 NORTH CANTON CENTER RD, CANTON, MI 48187",(734)416-7545,42.346873,-83.4894851
260108008635,Canton Preparatory High School,Public,2601080,Canton Preparatory High School,"Middle,High","46610 CHERRY HILL RD, CANTON, MI 48187",(734)404-6776,42.3085702,-83.4975525
260780004357,Capac Elementary School,Public,2607800,Capac Community Schools,,"541 NORTH GLASSFORD ST, MUSSEY, MI 48014",(810)395-3636,43.0180707,-82.934596
260780004358,Capac JrSr High School,Public,2607800,Capac Community Schools,"Middle,High","541 NORTH GLASSFORD ST, MUSSEY, MI 48014",(810)395-3858,43.0180707,-82.934596
260780008331,Capac Virtual Education Program,Public,2607800,Capac Community Schools,"Elementary,High","403 NORTH GLASSFORD ST, CAPAC, MI 48014",(810)395-3792,43.0164087,-82.9324524
262115009019,Capital Area K12 Online,Public,2621150,Lansing Public School District,"Elementary,High","4501 PLEASANT GROVE RD, LANSING, MI 48910",(517)755-1650,42.688012,-84.5393302
261083008899,CAPS Academy,Public,2610830,Coopersville Area Public School District,High,"198 EAST ST, COOPERSVILLE, MI 49404",(616)997-3205,43.0643235,-85.9199422
260101309057,Capstone Academy Charter SchoolRiverbend,Public,2601013,Capstone Academy Charter School (SDA),"Middle,High","13330 E JEFFERSON AVE, DETROIT, MI 48215",(313)823-6013,42.3702255,-82.94845339999999
260101308822,CapstoneWayne Co Juvenile Detention Fac,Public,2601013,Capstone Academy Charter School (SDA),"Middle,High","13330 E JEFFERSON AVE, Detroit, MI 48215",(313)831-3510,42.3702255,-82.94845339999999
262676007763,Cardinal Elementary,Public,2626760,Orchard View Schools,"Elementary,High","2310 MARQUETTE AVE, MUSKEGON, MI 49442",(231)760-1700,43.2461403,-86.185983
260483007861,Career and Alternative Pathways to Education Center,Public,2604830,Benton Harbor Area Schools,"Elementary,High","636 PIPESTONE ST, BENTON HARBOR, MI 49022",(269)605-1900,42.1062846,-86.4456541
268050501346,Career and Technical Education,Public,2680505,Copper Country ISD,High,"809 HECLA ST, HANCOCK, MI 49930",(906)482-4250,47.1313871,-88.6102961
268056007944,Career and Technical Education Center,Public,2680560,Iosco RESA,High,"27 NORTH REMPERT RD, TAWAS CITY, MI 48763",(989)362-3006,44.2802168,-83.5845271
263555008315,Career Connections Academy,Public,2635550,Wayland Union Schools,High,"870 East Superior Street, Wayland, MI 49348",(269)792-2254,42.670292,-85.63098090000001
261638008122,Career Development School,Public,2616380,Grand Haven Area Public Schools,High,"106 SOUTH 6TH ST, GRAND HAVEN, MI 49417",(616)850-6800,43.0605076,-86.224985
263039000709,Career Opportunities Center,Public,2630390,Saginaw School District of the City of,High,"2102 WEISS ST, SAGINAW, MI 48602",(989)399-6150,43.44596629999999,-83.97025119999999
262613008494,Career Preparation,Public,2626130,Novi Community School District,High,"41500 GARDENBROOK RD, Novi, MI 48375",(248)449-1717,42.4847487,-83.4576489
263519001586,Career Preparation Center,Public,2635190,Warren Consolidated Schools,High,"12200 15 MILE RD, STERLING HEIGHTS, MI 48312",(586)698-4172,42.5508519,-83.0032974
268090007921,Careerline Tech Center,Public,2680900,Ottawa Area ISD,High,"13663 PORT SHELDON ST, HOLLAND, MI 49424",(616)738-8950,42.8863081,-86.12272689999999
261893005569,Carl T Renton Jr High School,Public,2618930,Huron School District,Middle,"31578 HURON RIVER DR, NEW BOSTON, MI 48164",(734)782-2483,42.1237972,-83.3455024
260110304880,Carleton Elementary School,Public,2601103,Detroit Public Schools Community District,Elementary,"11724 CASINO ST, DETROIT, MI 48224",(313)866-8322,42.4275503,-82.9450175
263519007114,Carleton Middle School,Public,2635190,Warren Consolidated Schools,Middle,"8900 15 MILE RD, STERLING HEIGHTS, MI 48312",(586)825-2590,42.5504527,-83.0212483
260789004373,CarmanAinsworth High School,Public,2607890,Carman-Ainsworth Community Schools,"Middle,High","1300 N Linden Rd, Flint, MI 48532",(810)591-3240,43.0252202,-83.7712456
260789004361,CarmanAinsworth Middle School,Public,2607890,Carman-Ainsworth Community Schools,Middle,"1409 W MAPLE AVE, FLINT, MI 48507",(810)591-6202,42.9588218,-83.7080211
260801004374,CarneyNadeau Public School,Public,2608010,Carney-Nadeau Public Schools,High,"PO Box 68, Carney, MI 49812",(906)398-3052,45.586635,-87.5573448
260804000994,Caro Alternative High School,Public,2608040,Caro Community Schools,"Middle,High","217 N STATE ST, CARO, MI 48723",(989)673-6845,43.4900928,-83.39521409999999
260096008126,Caro Center,Public,2600960,Michigan Department of Community Health,,"2000 CHAMBERS RD, CARO, MI 48723",(989)673-3191,43.4511148,-83.4427781
260804004376,Caro High School,Public,2608040,Caro Community Schools,High,"301 NORTH HOOPER ST, CARO, MI 48723",(989)673-3165,43.4916013,-83.4098144
260804004378,Caro Middle School,Public,2608040,Caro Community Schools,Middle,"299 NORTH HOOPER ST, CARO, MI 48723",(989)673-3167,43.4909817,-83.4075622
262073000684,Carpenter Elem School,Public,2620730,Lake Orion Community Schools,Elementary,"2290 FLINTRIDGE ST, LAKE ORION, MI 48359",(248)391-3500,42.7279621,-83.28799649999999
260282004009,Carpenter School,Public,2602820,Ann Arbor Public Schools,Elementary,"4250 CENTRAL BLVD, ANN ARBOR, MI 48108",(734)997-1214,42.2487849,-83.6758412
263288006836,Carrie Knause Early Childhood Learning Center,Public,2632880,St. Louis Public Schools,Elementary,"121 I AND K ST, SAINT LOUIS, MI 48880",(989)681-3535,43.4170626,-84.6062915
260807004380,Carrollton Elementary School,Public,2608070,Carrollton Public Schools,Elementary,"PO Box 517, Saginaw, MI 48604",(989)754-2425,43.5072348,-83.96384259999999
260807004379,Carrollton High School,Public,2608070,Carrollton Public Schools,High,"1235 MAPLERIDGE RD, SAGINAW, MI 48604",(989)753-3433,43.4636189,-83.9372757
260807000711,Carrollton Middle School,Public,2608070,Carrollton Public Schools,Middle,"PO Box 517, Saginaw, MI 48604",(989)753-9704,43.5072348,-83.96384259999999
260000107852,Carson City Correctional Facility,Public,2600001,Michigan Department of Corrections,High,"PO Box 5000, Carson City, MI 48811",(517)584-3941,43.1769772,-84.8463945
260813004382,Carson City Elementary School,Public,2608130,Carson City-Crystal Area Schools,Elementary,"PO Box 780, Carson City, MI 48811",(989)584-3130,43.1769772,-84.8463945
260813004383,Carson CityCrystal High School,Public,2608130,Carson City-Crystal Area Schools,High,"PO Box 780, Carson City, MI 48811",(989)584-3175,43.1769772,-84.8463945
260813000654,Carson CityCrystal Upper ElementaryMiddle School,Public,2608130,Carson City-Crystal Area Schools,"Elementary,Middle","PO Box 780, Carson City, MI 48811",(989)584-3138,43.1769772,-84.8463945
260813008553,Carson CityCrystal Virtual Academy,Public,2608130,Carson City-Crystal Area Schools,"Middle,High","213 E SHERMAN ST, CARSON CITY, MI 48811",(989)584-3138,43.1786162,-84.8444835
260816004386,CarsonvillePort Sanilac Elementary School,Public,2608160,Carsonville-Port Sanilac School District,Elementary,"4115 EAST CHANDLER ST, CARSONVILLE, MI 48419",(810)657-9318,43.4275066,-82.6680172
260816004387,CarsonvillePort Sanilac HS,Public,2608160,Carsonville-Port Sanilac School District,"Middle,High","100 NORTH GOETZE RD, CARSONVILLE, MI 48419",(810)657-9394,43.428396,-82.63297
260816001828,CarsonvillePort Sanilac Learning Center,Public,2608160,Carsonville-Port Sanilac School District,"Middle,High","100 NORTH GOETZE RD, CARSONVILLE, MI 48419",(810)657-9393,43.428396,-82.63297
260110304667,Carstens ElementaryMiddle School,Public,2601103,Detroit Public Schools Community District,Middle,"13000 Essex Avenue, Detroit, MI 48215",(313)866-5500,42.3636394,-82.9477912
262442006103,Carter Elementary School,Public,2624420,Montrose Community Schools,Elementary,"PO Box 3129, Montrose, MI 48457",(810)591-8841,43.1766935,-83.8927439
263519007106,Carter Middle School,Public,2635190,Warren Consolidated Schools,Middle,"12000 MASONIC BLVD, WARREN, MI 48093",(586)825-2620,42.5280376,-83.004297
260110304668,Carver STEM Academy,Public,2601103,Detroit Public Schools Community District,Middle,"18701 PAUL ST, DETROIT, MI 48228",(313)240-6622,42.3356496,-83.2234928
261428001898,CASA,Public,2614280,Ferndale Public Schools,High,"23561 ROSEWOOD ST, OAK PARK, MI 48237",(248)691-8502,42.465397,-83.1629734
261962005625,Cascades Elementary School,Public,2619620,Jackson Public Schools,Elementary,"1200 S WISNER ST, JACKSON, MI 49203",(517)841-3900,42.23587,-84.4290213
260828004388,Caseville School K12,Public,2608280,Caseville Public Schools,High,"PO Box 1068, Caseville, MI 48725",(989)856-2311,43.9411253,-83.27134679999999
260015200931,Casman Alternative Academy,Public,2600152,Casman Alternative Academy,"Middle,High","225 9TH ST, MANISTEE, MI 49660",(231)723-4981,44.2368944,-86.3122483
260840004390,Cass City Elementary,Public,2608400,Cass City Public Schools,,"4805 ALE ST, CASS CITY, MI 48726",(989)872-2158,43.6063689,-83.17231199999999
260840004391,Cass City Jr and Sr High School,Public,2608400,Cass City Public Schools,"Middle,High","4868 SEEGER ST, CASS CITY, MI 48726",(989)872-2148,43.6112658,-83.17444259999999
260110304669,Cass Technical High School,Public,2601103,Detroit Public Schools Community District,High,"2501 2ND AVE, DETROIT, MI 48201",(313)263-2000,42.3388017,-83.0605551
260843000809,Cassopolis Alternative Ed,Public,2608430,Cassopolis Public Schools,High,"22721 DIAMOND COVE ST, CASSOPOLIS, MI 49031",(269)445-0536,41.8958945,-86.0030968
260843004397,Cassopolis High School,Public,2608430,Cassopolis Public Schools,High,"22721 DIAMOND COVE ST, CASSOPOLIS, MI 49031",(269)445-5733,41.8958945,-86.0030968
260843008955,Cassopolis Middle School,Public,2608430,Cassopolis Public Schools,Middle,"725 CENTER ST, CASSOPOLIS, MI 49031",(269)445-0503,41.9147866,-86.0014234
262115005789,Cavanaugh School,Public,2621150,Lansing Public School District,Elementary,"300 WEST CAVANAUGH RD, LANSING, MI 48910",(517)755-1250,42.689465,-84.555784
262976008160,CB Sabbath 68 Preparatory Academy,Public,2629760,River Rouge School District of the City of,Middle,"340 Frazier, River Rouge, MI 48218",(313)297-9654,42.2706878,-83.1468976
261716005393,Cedar Crest Elementary School,Public,2617160,Greenville Public Schools,Elementary,"622 SOUTH CEDAR ST, GREENVILLE, MI 48838",(616)754-3641,43.17431370000001,-85.2441885
260852009062,Cedar Springs Early Childhood Center,Public,2608520,Cedar Springs Public Schools,Pre-K,"204 E MUSKEGON ST, CEDAR SPRINGS, MI 49319",(616)696-9884,43.2176686,-85.53838809999999
260852004400,Cedar Springs High School,Public,2608520,Cedar Springs Public Schools,High,"204 EAST MUSKEGON ST, CEDAR SPRINGS, MI 49319",(616)696-1200,43.2176686,-85.53838809999999
260852001820,Cedar Springs Middle School,Public,2608520,Cedar Springs Public Schools,Middle,"204 E MUSKEGON ST, CEDAR SPRINGS, MI 49319",(616)696-9100,43.2176686,-85.53838809999999
262766001916,Cedar Street Community and Family Center,Public,2627660,Paw Paw Public School District,"Middle,High","555 CEDAR ST, PAW PAW, MI 49079",(269)415-5700,42.2213554,-85.8837211
260852000898,Cedar Trails Elementary School,Public,2608520,Cedar Springs Public Schools,Elementary,"204 EAST MUSKEGON ST, CEDAR SPRINGS, MI 49319",(616)696-9884,43.2176686,-85.53838809999999
260852007991,Cedar View Elementary School,Public,2608520,Cedar Springs Public Schools,Elementary,"204 EAST MUSKEGON ST, CEDAR SPRINGS, MI 49319",(616)696-9102,43.2176686,-85.53838809999999
262142005850,Cedarville School,Public,2621420,Les Cheneaux Community Schools,High,"PO Box 366, Cedarville, MI 49719",(906)484-2256,45.9976105,-84.35821279999999
263225001599,Centennial Middle School,Public,2632250,South Lyon Community Schools,Middle,"62500 9 MILE RD, SOUTH LYON, MI 48178",(248)573-8600,42.4468553,-83.6587867
261644007875,Center for Economicology,Public,2616440,Grand Rapids Public Schools,Middle,"1720 PLAINFIELD AVE NE, GRAND RAPIDS, MI 49505",(616)819-2380,42.99280419999999,-85.6600235
260096007994,Center for Forensic Psychiatry,Public,2600960,Michigan Department of Community Health,,"PO Box 2060, Ann Arbor, MI 48106",(734)429-2531,42.2721345,-83.775457
262118007659,Center for Innovation,Public,2621180,Lapeer Community Schools,High,"170 Millville Rd, LAPEER, MI 48446",(810)667-2453,43.0555916,-83.34125739999999
260858004404,Center Line High School,Public,2608580,Center Line Public Schools,High,"26300 Arsenal, Center Line, MI 48015",(586)510-2100,42.4860475,-83.01935309999999
260113108964,Center Line Preparatory Academy,Public,2601131,Center Line Preparatory Academy,"Elementary,High","8155 RITTER, CENTER LINE, MI 48015",(586)690-4290,42.4800373,-83.02448559999999
260016301004,Central Academy,Public,2600163,Central Academy,High,"2459 SOUTH INDUSTRIAL HWY, ANN ARBOR, MI 48104",(734)822-1100,42.2504752,-83.7317235
261143004580,Central Elementary School,Public,2611430,Davison Community Schools,Elementary,"600 SOUTH STATE RD, DAVISON, MI 48423",(810)591-0818,43.0350891,-83.5174305
262169005872,Central Elementary School,Public,2621690,Linden Community Schools,Elementary,"7199 SILVER LAKE RD, LINDEN, MI 48451",(810)591-8410,42.8089482,-83.8127021
262355001774,Central Elementary School,Public,2623550,Menominee Area Public Schools,Elementary,"1800 18TH AVE, MENOMINEE, MI 49858",(906)863-3605,45.115953,-87.6261583
261797005469,Central Elementary School,Public,2617970,Hastings Area School District,Elementary,"509 SOUTH BROADWAY ST, HASTINGS, MI 49058",(269)948-4423,42.6444731,-85.28999309999999
261455005143,Central Elementary School,Public,2614550,Flushing Community Schools,Elementary,"525 COUTANT ST, FLUSHING, MI 48433",(810)591-1901,43.0679776,-83.8466521
262954006539,Central Elementary School,Public,2629540,Reeths-Puffer Schools,Elementary,"1807 WEST GILES RD, MUSKEGON, MI 49445",(231)744-1693,43.2776448,-86.288652
262793007688,Central Elementary School,Public,2627930,Public Schools of Petoskey,Elementary,"410 STATE ST, PETOSKEY, MI 49770",(231)348-2110,45.3715309,-84.9549571
262895006486,Central Elementary School,Public,2628950,Portage Public Schools,Elementary,"8422 SOUTH WESTNEDGE AVE, PORTAGE, MI 49002",(269)323-6100,42.1945466,-85.59064099999999
263612007211,Central Elementary School,Public,2636120,White Pigeon Community Schools,Elementary,"305 EAST HOTCHIN AVE, WHITE PIGEON, MI 49099",(269)483-7107,41.79657599999999,-85.637975
263387006937,Central Grade School,Public,2633870,Traverse City Area Public Schools,,"301 WEST SEVENTH ST, TRAVERSE CITY, MI 49684",(231)933-5910,44.7597242,-85.627106
263387006949,Central High School,Public,2633870,Traverse City Area Public Schools,"Middle,High","1150 MILLIKEN DR, TRAVERSE CITY, MI 49686",(231)933-6500,44.7673046,-85.588138
261461005155,Central High School,Public,2614610,Forest Hills Public Schools,High,"5901 HALL ST SE, GRAND RAPIDS, MI 49546",(616)493-8700,42.9441087,-85.5229861
261638005278,Central High School,Public,2616380,Grand Haven Area Public Schools,High,"106 SOUTH 6TH ST, GRAND HAVEN, MI 49417",(616)850-6800,43.0605076,-86.224985
260110304670,Central High School,Public,2601103,Detroit Public Schools Community District,High,"2425 Tuxedo Street, Detroit, MI 48206",(313)252-3000,42.3833269,-83.111063
262016005695,Central Kelloggsville Elementary,Public,2620160,Kelloggsville Public Schools,Elementary,"4625 JEFFERSON AVE SE, GRAND RAPIDS, MI 49548",(616)532-1580,42.8792818,-85.6608182
260861004410,Central Lake Public Schools,Public,2608610,Central Lake Public Schools,High,"8169 W State St, Central Lake, MI 49622",(231)544-3341,45.0697249,-85.2673976
260000107887,Central Michigan Correctional Facility,Public,2600001,Michigan Department of Corrections,High,"8201 NORTH CROSWELL RD, SAINT LOUIS, MI 48880",(989)681-4361,43.413912,-84.59250899999999
261941005610,Central Middle School,Public,2619410,Iron Mountain Public Schools,Middle,"300 W B ST, IRON MOUNTAIN, MI 49801",(906)779-2610,45.8181743,-88.07043
261461005154,Central Middle School,Public,2614610,Forest Hills Public Schools,Middle,"5810 ADA DR SE, ADA, MI 49301",(616)493-8750,42.9476726,-85.52368969999999
262883006474,Central Middle School,Public,2628830,Port Huron Area School District,Middle,"200 32ND ST, PORT HURON, MI 48060",(810)984-6533,42.9832103,-82.4645139
260864004415,Central Montcalm Elementary School,Public,2608640,Central Montcalm Public Schools,Elementary,"289 SAINT CLAIR ST, SHERIDAN, MI 48884",(989)831-2500,43.2159679,-85.070784
260864004412,Central Montcalm Middle  High School,Public,2608640,Central Montcalm Public Schools,"Middle,High","1480 SOUTH SHERIDAN RD, STANTON, MI 48888",(989)831-2100,43.2745609,-85.0763119
260864001391,Central Montcalm Upper Elem School,Public,2608640,Central Montcalm Public Schools,Elementary,"PO Box 9, Stanton, MI 48888",(989)831-2300,43.2925317,-85.08140739999999
262382008837,Central Park Elementary School,Public,2623820,Midland Public Schools,Elementary,"1400 Rodd St, Midland, MI 48640",(989)923-6836,43.61836400000001,-84.23367119999999
262721006329,Central School,Public,2627210,Owosso Public Schools,Elementary,"600 WEST OLIVER ST, OWOSSO, MI 48867",(989)723-2790,43.00279250000001,-84.17810329999999
263471007054,Central School,Public,2634710,Vassar Public Schools,Elementary,"220 ATHLETIC ST, VASSAR, MI 48768",(989)823-8566,43.37561940000001,-83.58652239999999
261461000901,Central Woodlands 56 School,Public,2614610,Forest Hills Public Schools,Elementary,"400 ALTA DALE AVE SE, ADA, MI 49301",(616)493-8790,42.9568172,-85.52129959999999
260867008068,Centreville Adult Education,Public,2608670,Centreville Public Schools,High,"P O Box 158, Centreville, MI 49032",(269)467-5210,41.9233827,-85.5283225
260867004418,Centreville Elementary School,Public,2608670,Centreville Public Schools,,"PO Box 158, Centreville, MI 49032",(269)467-5201,41.9233827,-85.5283225
260867004417,Centreville Jr Sr High School,Public,2608670,Centreville Public Schools,"Middle,High","PO Box 158, Centreville, MI 49032",(269)467-5210,41.9233827,-85.5283225
260013900789,Cesar Chavez Academy Elementary,Public,2600139,Cesar Chavez Academy,Elementary,"4100 MARTIN ST, DETROIT, MI 48210",(313)843-9440,42.32903599999999,-83.12518999999999
260013908078,Cesar Chavez Academy Intermediate,Public,2600139,Cesar Chavez Academy,Elementary,"4100 MARTIN ST, DETROIT, MI 48210",(313)361-1083,42.32903599999999,-83.12518999999999
260013901488,Cesar Chavez High School,Public,2600139,Cesar Chavez Academy,High,"4100 MARTIN ST, DETROIT, MI 48210",(313)551-0611,42.32903599999999,-83.12518999999999
260013901033,Cesar Chavez Middle School,Public,2600139,Cesar Chavez Academy,Middle,"4100 MARTIN ST, DETROIT, MI 48210",(313)842-0006,42.32903599999999,-83.12518999999999
261644005319,Cesar E Chavez Elementary,Public,2616440,Grand Rapids Public Schools,Elementary,"1205 Grandville Ave SW, GRAND RAPIDS, MI 49503",(616)819-2560,42.941364,-85.68359099999999
262034007682,Challenger Elementary,Public,2620340,Kentwood Public Schools,Elementary,"2475 52ND ST SE, GRAND RAPIDS, MI 49508",(616)698-2524,42.8702443,-85.6048867
261872000042,Challenger Elementary School,Public,2618720,Howell Public Schools,Elementary,"1066 WEST GRAND RIVER AVE, HOWELL, MI 48843",(517)548-6375,42.612059,-83.9455105
260016801441,Chandler Park Academy  Elementary,Public,2600168,Chandler Park Academy,Elementary,"20200 KELLY RD, HARPER WOODS, MI 48225",(313)884-8830,42.4456052,-82.94226429999999
260016807800,Chandler Park Academy  High School,Public,2600168,Chandler Park Academy,High,"20254 Kelly Road, HARPER WOODS, MI 48225",(313)499-3010,42.4461609,-82.9417531
260016801037,Chandler Park Academy  Middle School,Public,2600168,Chandler Park Academy,Middle,"20100 KELLY RD, HARPER WOODS, MI 48225",(248)905-5030,42.44500439999999,-82.94305709999999
260020901136,Chandler Woods Charter Academy,Public,2600209,Chandler Woods Charter Academy,Middle,"6895 SAMRICK AVE NE, BELMONT, MI 49306",(616)866-6000,43.0890138,-85.6280848
261587005237,Chapman Elementary School,Public,2615870,Gibraltar School District,Elementary,"31500 OLMSTEAD RD, ROCKWOOD, MI 48173",(734)379-6380,42.0779189,-83.2573678
268024007895,CharEm Alternative Schools,Public,2680240,Charlevoix-Emmet ISD,High,"8568 MERCER RD, CHARLEVOIX, MI 49720",(231)547-9947,45.3300732,-85.2397739
268024000811,CharEm Special Education Schools,Public,2680240,Charlevoix-Emmet ISD,High,"8568 MERCER RD, CHARLEVOIX, MI 49720",(231)547-9947,45.3300732,-85.2397739
261160004586,Charles A Lindbergh Elementary School,Public,2611600,Dearborn City School District,Elementary,"500 NORTH WAVERLY ST, DEARBORN, MI 48128",(313)827-6300,42.3149298,-83.27009
261008004493,Charles C McGlinnen School,Public,2610080,Clintondale Community Schools,Elementary,"21415 SUNNYVIEW ST, CLINTON TOWNSHIP, MI 48035",(586)791-3400,42.5627868,-82.9024484
260609007840,Charles L Bowers Farm,Public,2606090,Bloomfield Hills Schools,"Elementary,High","1219 EAST SQUARE LAKE RD, BLOOMFIELD HILLS, MI 48304",(248)641-6475,42.6053327,-83.2173097
260110308275,Charles R Drew Transition Center,Public,2601103,Detroit Public Schools Community District,,"9600 Wyoming Street, Detroit, MI 48204",(313)873-6880,42.3673814,-83.1571573
260110301609,Charles Wright Academy of Arts and Science,Public,2601103,Detroit Public Schools Community District,Middle,"19299 BERG RD, DETROIT, MI 48219",(313)538-3024,42.4323163,-83.26869789999999
260873004421,Charlevoix Elementary School,Public,2608730,Charlevoix Public Schools,Elementary,"108 E GARFIELD AVE, CHARLEVOIX, MI 49720",(231)547-8115,45.3097831,-85.2564751
260873004419,Charlevoix Middle High School,Public,2608730,Charlevoix Public Schools,"Middle,High","5200 MARION CENTER RD, CHARLEVOIX, MI 49720",(231)547-3222,45.28301,-85.27100399999999
260877004423,Charlotte Middle School,Public,2608770,Charlotte Public Schools,Middle,"1068 CARLISLE HWY, CHARLOTTE, MI 48813",(517)541-5700,42.5557922,-84.85655
260877008861,Charlotte Public Schools Project Success,Public,2608770,Charlotte Public Schools,High,"378 STATE ST, CHARLOTTE, MI 48813",(517)541-5600,42.5582523,-84.85112840000001
260877004422,Charlotte Senior High School,Public,2608770,Charlotte Public Schools,"Middle,High","378 STATE ST, CHARLOTTE, MI 48813",(517)541-5600,42.5582523,-84.85112840000001
260877008247,Charlotte Upper Elementary School,Public,2608770,Charlotte Public Schools,"Elementary,Middle","378 STATE ST, CHARLOTTE, MI 48813",(517)541-5770,42.5582523,-84.85112840000001
260102808329,Charlton Heston Academy,Public,2601028,Charlton Heston Academy,High,"1350 N SAINT HELEN RD, SAINT HELEN, MI 48656",(989)632-3390,44.3531568,-84.4068782
260010000613,Charyl Stockwell Academy,Public,2600100,Charyl Stockwell Academy,Elementary,"9758 EAST HIGHLAND RD, HOWELL, MI 48843",(810)632-2200,42.6302824,-83.7586512
260010007835,Charyl Stockwell Academy High School,Public,2600100,Charyl Stockwell Academy,High,"1032 KARL GREIMEL DR, BRIGHTON, MI 48116",(810)225-9940,42.5406066,-83.7950929
